{
"type": "FeatureCollection",
"name": "TelecomTerminals2018",
"crs": { "type": "name", "properties": { "name": "urn:ogc:def:crs:OGC:1.3:CRS84" } },
"features": [
{ "type": "Feature", "properties": { "OBJECTID": 1, "Name": "Mahuma, Curaçao", "city_id": "17242", "cable_id": "1727" }, "geometry": { "type": "Point", "coordinates": [ -68.956942999719573, 12.16890000023484, 0.0 ] } },
{ "type": "Feature", "properties": { "OBJECTID": 2, "Name": "Sydney, Australia", "city_id": "3030", "cable_id": "1934" }, "geometry": { "type": "Point", "coordinates": [ 151.207039000050003, -33.869700999901177, 0.0 ] } },
{ "type": "Feature", "properties": { "OBJECTID": 3, "Name": "Honiara, Solomon Islands", "city_id": "10892", "cable_id": "1934" }, "geometry": { "type": "Point", "coordinates": [ 159.949783999631904, -9.429086999565337, 0.0 ] } },
{ "type": "Feature", "properties": { "OBJECTID": 4, "Name": "Port Moresby, Papua New Guinea", "city_id": "3925", "cable_id": "1934" }, "geometry": { "type": "Point", "coordinates": [ 147.188509999836725, -9.479599999740142, 0.0 ] } },
{ "type": "Feature", "properties": { "OBJECTID": 5, "Name": "Auki, Solomon Islands", "city_id": "10893", "cable_id": "1934" }, "geometry": { "type": "Point", "coordinates": [ 160.701320999764505, -8.774644000120455, 0.0 ] } },
{ "type": "Feature", "properties": { "OBJECTID": 6, "Name": "Noro, Solomon Islands", "city_id": "10894", "cable_id": "1934" }, "geometry": { "type": "Point", "coordinates": [ 157.190653999582594, -8.242076000207156, 0.0 ] } },
{ "type": "Feature", "properties": { "OBJECTID": 7, "Name": "Taro, Solomon Islands", "city_id": "17241", "cable_id": "1934" }, "geometry": { "type": "Point", "coordinates": [ 156.39590399957001, -6.708996000265149, 0.0 ] } },
{ "type": "Feature", "properties": { "OBJECTID": 8, "Name": "Luganville, Vanuatu", "city_id": "16149", "cable_id": "1795" }, "geometry": { "type": "Point", "coordinates": [ 167.200268000268011, -15.506428000052066, 0.0 ] } },
{ "type": "Feature", "properties": { "OBJECTID": 9, "Name": "Honiara, Solomon Islands", "city_id": "10892", "cable_id": "1795" }, "geometry": { "type": "Point", "coordinates": [ 159.949783999631904, -9.429086999565337, 0.0 ] } },
{ "type": "Feature", "properties": { "OBJECTID": 10, "Name": "Stavanger, Norway", "city_id": "3132", "cable_id": "1941" }, "geometry": { "type": "Point", "coordinates": [ 5.730790000258415, 58.970831000250541, 0.0 ] } },
{ "type": "Feature", "properties": { "OBJECTID": 11, "Name": "Seaton Sluice, United Kingdom", "city_id": "17233", "cable_id": "1941" }, "geometry": { "type": "Point", "coordinates": [ -1.474407000182851, 55.083614000385865, 0.0 ] } },
{ "type": "Feature", "properties": { "OBJECTID": 12, "Name": "Saint-Pierre, Saint Pierre and Miquelon", "city_id": "17237", "cable_id": "1967" }, "geometry": { "type": "Point", "coordinates": [ -56.180630999820714, 46.775842000308124, 0.0 ] } },
{ "type": "Feature", "properties": { "OBJECTID": 13, "Name": "Miquelon-Langlade, Saint Pierre and Miquelon", "city_id": "17236", "cable_id": "1967" }, "geometry": { "type": "Point", "coordinates": [ -56.34991800041535, 47.083665999886044, 0.0 ] } },
{ "type": "Feature", "properties": { "OBJECTID": 14, "Name": "Fortune, NL, Canada", "city_id": "17235", "cable_id": "1967" }, "geometry": { "type": "Point", "coordinates": [ -55.827286000048851, 47.071983999861729, 0.0 ] } },
{ "type": "Feature", "properties": { "OBJECTID": 15, "Name": "Lamaline, NL, Canada", "city_id": "17234", "cable_id": "1967" }, "geometry": { "type": "Point", "coordinates": [ -55.803274999841335, 46.86895700006562, 0.0 ] } },
{ "type": "Feature", "properties": { "OBJECTID": 16, "Name": "Narragansett, RI, United States", "city_id": "17231", "cable_id": "1966" }, "geometry": { "type": "Point", "coordinates": [ -71.442806000196668, 41.441371999618198, 0.0 ] } },
{ "type": "Feature", "properties": { "OBJECTID": 17, "Name": "Crescent Beach, RI, United States", "city_id": "17232", "cable_id": "1966" }, "geometry": { "type": "Point", "coordinates": [ -71.593673000308641, 41.191958000161669, 0.0 ] } },
{ "type": "Feature", "properties": { "OBJECTID": 18, "Name": "Kwa Ibo, Nigeria", "city_id": "17230", "cable_id": "1965" }, "geometry": { "type": "Point", "coordinates": [ 7.997427000355842, 4.54380600034676, 0.0 ] } },
{ "type": "Feature", "properties": { "OBJECTID": 19, "Name": "Bonny, Nigeria", "city_id": "5922", "cable_id": "1965" }, "geometry": { "type": "Point", "coordinates": [ 7.178420999629441, 4.429329000233312, 0.0 ] } },
{ "type": "Feature", "properties": { "OBJECTID": 20, "Name": "Nybro, Sweden", "city_id": "13064", "cable_id": "1963" }, "geometry": { "type": "Point", "coordinates": [ 15.908677999789932, 56.743793999793347, 0.0 ] } },
{ "type": "Feature", "properties": { "OBJECTID": 21, "Name": "Klaipeda, Lithuania", "city_id": "5898", "cable_id": "1963" }, "geometry": { "type": "Point", "coordinates": [ 21.149984000261469, 55.695723000016535, 0.0 ] } },
{ "type": "Feature", "properties": { "OBJECTID": 22, "Name": "Changi South, Singapore", "city_id": "5937", "cable_id": "1958" }, "geometry": { "type": "Point", "coordinates": [ 103.987017000234459, 1.389438000363583, 0.0 ] } },
{ "type": "Feature", "properties": { "OBJECTID": 23, "Name": "Songkhla, Thailand", "city_id": "4265", "cable_id": "1958" }, "geometry": { "type": "Point", "coordinates": [ 100.596956000419141, 7.07857099955211, 0.0 ] } },
{ "type": "Feature", "properties": { "OBJECTID": 24, "Name": "Sihanoukville, Cambodia", "city_id": "9118", "cable_id": "1958" }, "geometry": { "type": "Point", "coordinates": [ 103.506719999728261, 10.629960999900348, 0.0 ] } },
{ "type": "Feature", "properties": { "OBJECTID": 25, "Name": "Chikura, Japan", "city_id": "5885", "cable_id": "1958" }, "geometry": { "type": "Point", "coordinates": [ 139.954675999897461, 34.976701999697632, 0.0 ] } },
{ "type": "Feature", "properties": { "OBJECTID": 26, "Name": "Shima, Japan", "city_id": "5883", "cable_id": "1958" }, "geometry": { "type": "Point", "coordinates": [ 136.874282000114277, 34.336894999804514, 0.0 ] } },
{ "type": "Feature", "properties": { "OBJECTID": 27, "Name": "Pusan, Korea, Rep.", "city_id": "4183", "cable_id": "1958" }, "geometry": { "type": "Point", "coordinates": [ 128.999480999848288, 35.170280999968284, 0.0 ] } },
{ "type": "Feature", "properties": { "OBJECTID": 28, "Name": "Tanshui, Taiwan", "city_id": "5982", "cable_id": "1958" }, "geometry": { "type": "Point", "coordinates": [ 121.46264399962098, 25.181601999732582, 0.0 ] } },
{ "type": "Feature", "properties": { "OBJECTID": 29, "Name": "Fangshan, Taiwan", "city_id": "5980", "cable_id": "1958" }, "geometry": { "type": "Point", "coordinates": [ 120.662156000299206, 22.249205999956949, 0.0 ] } },
{ "type": "Feature", "properties": { "OBJECTID": 30, "Name": "Chung Hom Kok, Hong Kong, China", "city_id": "5856", "cable_id": "1958" }, "geometry": { "type": "Point", "coordinates": [ 114.20307700010359, 22.222106000291785, 0.0 ] } },
{ "type": "Feature", "properties": { "OBJECTID": 31, "Name": "Lingang, China", "city_id": "16316", "cable_id": "1958" }, "geometry": { "type": "Point", "coordinates": [ 121.896115000007313, 30.935675999847554, 0.0 ] } },
{ "type": "Feature", "properties": { "OBJECTID": 32, "Name": "Quy Nhon, Vietnam", "city_id": "17229", "cable_id": "1958" }, "geometry": { "type": "Point", "coordinates": [ 109.219656000324221, 13.782961999796521, 0.0 ] } },
{ "type": "Feature", "properties": { "OBJECTID": 33, "Name": "Baie du Tombeau, Mauritius", "city_id": "17228", "cable_id": "1892" }, "geometry": { "type": "Point", "coordinates": [ 57.495121000134048, -20.122123999722753, 0.0 ] } },
{ "type": "Feature", "properties": { "OBJECTID": 34, "Name": "Le Port, Réunion", "city_id": "17227", "cable_id": "1892" }, "geometry": { "type": "Point", "coordinates": [ 55.30327600018736, -20.944389999698636, 0.0 ] } },
{ "type": "Feature", "properties": { "OBJECTID": 35, "Name": "Fort Dauphin, Madagascar", "city_id": "17226", "cable_id": "1892" }, "geometry": { "type": "Point", "coordinates": [ 46.985359999964103, -25.022536999982488, 0.0 ] } },
{ "type": "Feature", "properties": { "OBJECTID": 36, "Name": "Durban, South Africa", "city_id": "5044", "cable_id": "1892" }, "geometry": { "type": "Point", "coordinates": [ 31.03512300022636, -29.855737999808763, 0.0 ] } },
{ "type": "Feature", "properties": { "OBJECTID": 37, "Name": "Candi Kusuma, Indonesia", "city_id": "17173", "cable_id": "1955" }, "geometry": { "type": "Point", "coordinates": [ 114.527246999849325, -8.294566999867099, 0.0 ] } },
{ "type": "Feature", "properties": { "OBJECTID": 38, "Name": "Muncar, Indonesia", "city_id": "17172", "cable_id": "1955" }, "geometry": { "type": "Point", "coordinates": [ 114.310377000198542, -8.44800900001529, 0.0 ] } },
{ "type": "Feature", "properties": { "OBJECTID": 39, "Name": "Banyu Urip, Indonesia", "city_id": "17175", "cable_id": "1956" }, "geometry": { "type": "Point", "coordinates": [ 112.719678999786197, -7.271911000292376, 0.0 ] } },
{ "type": "Feature", "properties": { "OBJECTID": 40, "Name": "Kendal, Indonesia", "city_id": "17174", "cable_id": "1956" }, "geometry": { "type": "Point", "coordinates": [ 110.187917999716063, -7.026549999782612, 0.0 ] } },
{ "type": "Feature", "properties": { "OBJECTID": 41, "Name": "Cirebon, Indonesia", "city_id": "15733", "cable_id": "1956" }, "geometry": { "type": "Point", "coordinates": [ 108.566678000089595, -6.716662000351014, 0.0 ] } },
{ "type": "Feature", "properties": { "OBJECTID": 42, "Name": "Tanjung Pakis, Indonesia", "city_id": "9095", "cable_id": "1956" }, "geometry": { "type": "Point", "coordinates": [ 107.12090299997358, -5.981261999741393, 0.0 ] } },
{ "type": "Feature", "properties": { "OBJECTID": 43, "Name": "Takapuna, New Zealand", "city_id": "5918", "cable_id": "1894" }, "geometry": { "type": "Point", "coordinates": [ 174.76791600042327, -36.787838999570113, 0.0 ] } },
{ "type": "Feature", "properties": { "OBJECTID": 44, "Name": "Los Angeles, CA, United States", "city_id": "3678", "cable_id": "1894" }, "geometry": { "type": "Point", "coordinates": [ -118.245334999910227, 34.053485000132738, 0.0 ] } },
{ "type": "Feature", "properties": { "OBJECTID": 45, "Name": "Kiritimati, Kiribati", "city_id": "17031", "cable_id": "1894" }, "geometry": { "type": "Point", "coordinates": [ -157.42781300026968, 1.872127999707511, 0.0 ] } },
{ "type": "Feature", "properties": { "OBJECTID": 46, "Name": "Nukunonu, Tokelau", "city_id": "17030", "cable_id": "1894" }, "geometry": { "type": "Point", "coordinates": [ -171.811505000055718, -9.17459499975941, 0.0 ] } },
{ "type": "Feature", "properties": { "OBJECTID": 47, "Name": "Suva, Fiji", "city_id": "4268", "cable_id": "1894" }, "geometry": { "type": "Point", "coordinates": [ 178.437445999833187, -18.123638999839862, 0.0 ] } },
{ "type": "Feature", "properties": { "OBJECTID": 48, "Name": "Apia, Samoa", "city_id": "5705", "cable_id": "1894" }, "geometry": { "type": "Point", "coordinates": [ -171.76667800038939, -13.833407000232858, 0.0 ] } },
{ "type": "Feature", "properties": { "OBJECTID": 49, "Name": "Savusavu, Fiji", "city_id": "17015", "cable_id": "1894" }, "geometry": { "type": "Point", "coordinates": [ 179.349749999762736, -16.808014999592498, 0.0 ] } },
{ "type": "Feature", "properties": { "OBJECTID": 50, "Name": "Alexandria, Australia", "city_id": "6097", "cable_id": "1894" }, "geometry": { "type": "Point", "coordinates": [ 151.196199000183839, -33.913670999616883, 0.0 ] } },
{ "type": "Feature", "properties": { "OBJECTID": 51, "Name": "Wall Township, New Jersey, United States", "city_id": "3822", "cable_id": "1961" }, "geometry": { "type": "Point", "coordinates": [ -74.062873000388564, 40.152871000096695, 0.0 ] } },
{ "type": "Feature", "properties": { "OBJECTID": 52, "Name": "Wall Township, New Jersey, United States", "city_id": "3822", "cable_id": "1931" }, "geometry": { "type": "Point", "coordinates": [ -74.062873000388564, 40.152871000096695, 0.0 ] } },
{ "type": "Feature", "properties": { "OBJECTID": 53, "Name": "Blaabjerg, Denmark", "city_id": "5818", "cable_id": "1931" }, "geometry": { "type": "Point", "coordinates": [ 8.329189000372136, 55.75168000033181, 0.0 ] } },
{ "type": "Feature", "properties": { "OBJECTID": 54, "Name": "Lecanvey, Ireland", "city_id": "17094", "cable_id": "1931" }, "geometry": { "type": "Point", "coordinates": [ -9.696497999782792, 53.770821000289054, 0.0 ] } },
{ "type": "Feature", "properties": { "OBJECTID": 55, "Name": "Medan, Indonesia", "city_id": "5861", "cable_id": "1957" }, "geometry": { "type": "Point", "coordinates": [ 98.676058000076765, 3.752132000091773, 0.0 ] } },
{ "type": "Feature", "properties": { "OBJECTID": 56, "Name": "Panipahan, Indonesia", "city_id": "17176", "cable_id": "1957" }, "geometry": { "type": "Point", "coordinates": [ 100.313312999895018, 2.452352000244737, 0.0 ] } },
{ "type": "Feature", "properties": { "OBJECTID": 57, "Name": "Dumai, Indonesia", "city_id": "7311", "cable_id": "1957" }, "geometry": { "type": "Point", "coordinates": [ 101.447638999640233, 1.665608999855549, 0.0 ] } },
{ "type": "Feature", "properties": { "OBJECTID": 58, "Name": "Turtle Farm, Cayman Islands", "city_id": "17195", "cable_id": "1913" }, "geometry": { "type": "Point", "coordinates": [ -81.415365999940903, 19.380065999846103, 0.0 ] } },
{ "type": "Feature", "properties": { "OBJECTID": 59, "Name": "Sydney, Australia", "city_id": "3030", "cable_id": "1959" }, "geometry": { "type": "Point", "coordinates": [ 151.207039000050003, -33.869700999901177, 0.0 ] } },
{ "type": "Feature", "properties": { "OBJECTID": 60, "Name": "Piti, Guam", "city_id": "5973", "cable_id": "1959" }, "geometry": { "type": "Point", "coordinates": [ 144.694736999712831, 13.464664000143573, 0.0 ] } },
{ "type": "Feature", "properties": { "OBJECTID": 61, "Name": "Piti, Guam", "city_id": "5973", "cable_id": "1919" }, "geometry": { "type": "Point", "coordinates": [ 144.694736999712831, 13.464664000143573, 0.0 ] } },
{ "type": "Feature", "properties": { "OBJECTID": 62, "Name": "Minamiboso, Japan", "city_id": "16280", "cable_id": "1919" }, "geometry": { "type": "Point", "coordinates": [ 139.840124999968879, 35.042998000157624, 0.0 ] } },
{ "type": "Feature", "properties": { "OBJECTID": 63, "Name": "Pangai, Tonga", "city_id": "17155", "cable_id": "1951" }, "geometry": { "type": "Point", "coordinates": [ -174.350260999845261, -19.811431000040574, 0.0 ] } },
{ "type": "Feature", "properties": { "OBJECTID": 64, "Name": "Neiafu, Tonga", "city_id": "17154", "cable_id": "1951" }, "geometry": { "type": "Point", "coordinates": [ -173.983684999663012, -18.647686999855132, 0.0 ] } },
{ "type": "Feature", "properties": { "OBJECTID": 65, "Name": "Nukualofa, Tonga", "city_id": "17154", "cable_id": "1951" }, "geometry": { "type": "Point", "coordinates": [ -175.204947000203845, -21.139336000056296, 0.0 ] } },
{ "type": "Feature", "properties": { "OBJECTID": 66, "Name": "St. Austell, United Kingdom", "city_id": "8787", "cable_id": "1043" }, "geometry": { "type": "Point", "coordinates": [ -4.792301000390809, 50.337425000363481, 0.0 ] } },
{ "type": "Feature", "properties": { "OBJECTID": 67, "Name": "Kekaha, Hawaii, United States", "city_id": "17138", "cable_id": "1948" }, "geometry": { "type": "Point", "coordinates": [ -159.724199999929994, 21.970299000198736, 0.0 ] } },
{ "type": "Feature", "properties": { "OBJECTID": 68, "Name": "Kawaihae, Hawaii, United States", "city_id": "8973", "cable_id": "1948" }, "geometry": { "type": "Point", "coordinates": [ -155.831236000341107, 20.04029499991438, 0.0 ] } },
{ "type": "Feature", "properties": { "OBJECTID": 69, "Name": "Makaha, Hawaii, United States", "city_id": "5760", "cable_id": "1948" }, "geometry": { "type": "Point", "coordinates": [ -158.220649000151184, 21.463438999610293, 0.0 ] } },
{ "type": "Feature", "properties": { "OBJECTID": 70, "Name": "Makena, Hawaii, United States", "city_id": "17135", "cable_id": "1948" }, "geometry": { "type": "Point", "coordinates": [ -156.439999000353538, 20.663598000447422, 0.0 ] } },
{ "type": "Feature", "properties": { "OBJECTID": 71, "Name": "Lahaina, Hawaii, United States", "city_id": "17136", "cable_id": "1948" }, "geometry": { "type": "Point", "coordinates": [ -156.684499999875015, 20.900902999973582, 0.0 ] } },
{ "type": "Feature", "properties": { "OBJECTID": 72, "Name": "Kaunakakai, Hawaii, United States", "city_id": "16121", "cable_id": "1948" }, "geometry": { "type": "Point", "coordinates": [ -157.023888999977345, 21.093335000410047, 0.0 ] } },
{ "type": "Feature", "properties": { "OBJECTID": 73, "Name": "Hawaii Kai,  Hawaii, United States", "city_id": "17139", "cable_id": "1948" }, "geometry": { "type": "Point", "coordinates": [ -157.668899999735174, 21.271996999861766, 0.0 ] } },
{ "type": "Feature", "properties": { "OBJECTID": 74, "Name": "Røst, Norway", "city_id": "17145", "cable_id": "1950" }, "geometry": { "type": "Point", "coordinates": [ 12.07011799994585, 67.502564999675059, 0.0 ] } },
{ "type": "Feature", "properties": { "OBJECTID": 75, "Name": "Bodø, Norway", "city_id": "10225", "cable_id": "1950" }, "geometry": { "type": "Point", "coordinates": [ 14.400072999869096, 67.285999999700266, 0.0 ] } },
{ "type": "Feature", "properties": { "OBJECTID": 76, "Name": "Golden Bay, Malta", "city_id": "17134", "cable_id": "1947" }, "geometry": { "type": "Point", "coordinates": [ 14.344458000036743, 35.938700999851314, 0.0 ] } },
{ "type": "Feature", "properties": { "OBJECTID": 77, "Name": "Mgarr Ix-Xini, Malta", "city_id": "17133", "cable_id": "1947" }, "geometry": { "type": "Point", "coordinates": [ 14.271324999948838, 36.020450999813789, 0.0 ] } },
{ "type": "Feature", "properties": { "OBJECTID": 78, "Name": "La Cambuse, Mauritius", "city_id": "17111", "cable_id": "1901" }, "geometry": { "type": "Point", "coordinates": [ 57.699320000018012, -20.454277999829806, 0.0 ] } },
{ "type": "Feature", "properties": { "OBJECTID": 79, "Name": "Grand Baie (Rodrigues), Mauritius", "city_id": "17114", "cable_id": "1901" }, "geometry": { "type": "Point", "coordinates": [ 63.448217999760921, -19.67434599966807, 0.0 ] } },
{ "type": "Feature", "properties": { "OBJECTID": 80, "Name": "Grand Baie (Rodrigues), Mauritius", "city_id": "17114", "cable_id": "1935" }, "geometry": { "type": "Point", "coordinates": [ 63.448217999760921, -19.67434599966807, 0.0 ] } },
{ "type": "Feature", "properties": { "OBJECTID": 81, "Name": "Hao, French Polynesia", "city_id": "17095", "cable_id": "1916" }, "geometry": { "type": "Point", "coordinates": [ -140.908089999653697, -18.215753000200767, 0.0 ] } },
{ "type": "Feature", "properties": { "OBJECTID": 82, "Name": "Manado, Indonesia", "city_id": "15115", "cable_id": "1940" }, "geometry": { "type": "Point", "coordinates": [ 124.839620000362828, 1.490828999558818, 0.0 ] } },
{ "type": "Feature", "properties": { "OBJECTID": 83, "Name": "Ondong Siau, Indonesia", "city_id": "16649", "cable_id": "1940" }, "geometry": { "type": "Point", "coordinates": [ 125.372969000319102, 2.75459799979796, 0.0 ] } },
{ "type": "Feature", "properties": { "OBJECTID": 84, "Name": "Tahuna, Indonesia", "city_id": "16650", "cable_id": "1940" }, "geometry": { "type": "Point", "coordinates": [ 125.485517999656054, 3.611116000103443, 0.0 ] } },
{ "type": "Feature", "properties": { "OBJECTID": 85, "Name": "Melonguane, Indonesia", "city_id": "17078", "cable_id": "1940" }, "geometry": { "type": "Point", "coordinates": [ 126.717279999672314, 4.043001000196131, 0.0 ] } },
{ "type": "Feature", "properties": { "OBJECTID": 86, "Name": "Morotai, Indonesia", "city_id": "16651", "cable_id": "1940" }, "geometry": { "type": "Point", "coordinates": [ 128.400824000027711, 2.365657999816972, 0.0 ] } },
{ "type": "Feature", "properties": { "OBJECTID": 87, "Name": "Tobelo, Indonesia", "city_id": "17079", "cable_id": "1940" }, "geometry": { "type": "Point", "coordinates": [ 127.967864999869917, 1.714584000151561, 0.0 ] } },
{ "type": "Feature", "properties": { "OBJECTID": 88, "Name": "Terante, Indonesia", "city_id": "17080", "cable_id": "1940" }, "geometry": { "type": "Point", "coordinates": [ 127.361346999964098, 0.795810000431263, 0.0 ] } },
{ "type": "Feature", "properties": { "OBJECTID": 89, "Name": "Sofifi, Indonesia", "city_id": "16622", "cable_id": "1940" }, "geometry": { "type": "Point", "coordinates": [ 127.561444999587181, 0.734969999765754, 0.0 ] } },
{ "type": "Feature", "properties": { "OBJECTID": 90, "Name": "Tidore, Indonesia", "city_id": "17081", "cable_id": "1940" }, "geometry": { "type": "Point", "coordinates": [ 127.404096000030464, 0.674007999769405, 0.0 ] } },
{ "type": "Feature", "properties": { "OBJECTID": 91, "Name": "Luwuk, Indonesia", "city_id": "16620", "cable_id": "1940" }, "geometry": { "type": "Point", "coordinates": [ 122.792794999789635, -0.93883300014277, 0.0 ] } },
{ "type": "Feature", "properties": { "OBJECTID": 92, "Name": "Salakan, Indonesia", "city_id": "17082", "cable_id": "1940" }, "geometry": { "type": "Point", "coordinates": [ 123.340205999807125, -1.301015000042154, 0.0 ] } },
{ "type": "Feature", "properties": { "OBJECTID": 93, "Name": "Bangga, Indonesia", "city_id": "17083", "cable_id": "1940" }, "geometry": { "type": "Point", "coordinates": [ 123.527534999640551, -1.600282999860475, 0.0 ] } },
{ "type": "Feature", "properties": { "OBJECTID": 94, "Name": "Taliabu, Indonesia", "city_id": "17084", "cable_id": "1940" }, "geometry": { "type": "Point", "coordinates": [ 124.774068000038199, -1.826845000396378, 0.0 ] } },
{ "type": "Feature", "properties": { "OBJECTID": 95, "Name": "Sanana, Indonesia", "city_id": "16623", "cable_id": "1940" }, "geometry": { "type": "Point", "coordinates": [ 125.937006999973136, -2.201453999602323, 0.0 ] } },
{ "type": "Feature", "properties": { "OBJECTID": 96, "Name": "Kendari, Indonesia", "city_id": "16570", "cable_id": "1940" }, "geometry": { "type": "Point", "coordinates": [ 122.512984999758061, -3.998449999567702, 0.0 ] } },
{ "type": "Feature", "properties": { "OBJECTID": 97, "Name": "Wawonii, Indonesia", "city_id": "17085", "cable_id": "1940" }, "geometry": { "type": "Point", "coordinates": [ 123.12389799999282, -4.136146000237617, 0.0 ] } },
{ "type": "Feature", "properties": { "OBJECTID": 98, "Name": "Raha, Indonesia", "city_id": "17086", "cable_id": "1940" }, "geometry": { "type": "Point", "coordinates": [ 122.721089999903597, -4.832385999913921, 0.0 ] } },
{ "type": "Feature", "properties": { "OBJECTID": 99, "Name": "Buranga, Indonesia", "city_id": "17087", "cable_id": "1940" }, "geometry": { "type": "Point", "coordinates": [ 122.856125000168731, -4.792272999998859, 0.0 ] } },
{ "type": "Feature", "properties": { "OBJECTID": 100, "Name": "Lakudo, Indonesia", "city_id": "17088", "cable_id": "1940" }, "geometry": { "type": "Point", "coordinates": [ 122.559908999900486, -5.389124000172399, 0.0 ] } },
{ "type": "Feature", "properties": { "OBJECTID": 101, "Name": "Baubau, Indonesia", "city_id": "17089", "cable_id": "1940" }, "geometry": { "type": "Point", "coordinates": [ 122.596895999550853, -5.507068000088069, 0.0 ] } },
{ "type": "Feature", "properties": { "OBJECTID": 102, "Name": "Ijmuiden, Netherlands", "city_id": "10414", "cable_id": "1936" }, "geometry": { "type": "Point", "coordinates": [ 4.613676000147331, 52.458517000259391, 0.0 ] } },
{ "type": "Feature", "properties": { "OBJECTID": 103, "Name": "Takaroa, French Polynesia", "city_id": "17067", "cable_id": "1916" }, "geometry": { "type": "Point", "coordinates": [ -144.972207999599476, -14.449763999708734, 0.0 ] } },
{ "type": "Feature", "properties": { "OBJECTID": 104, "Name": "Manihi, French Polynesia", "city_id": "17068", "cable_id": "1916" }, "geometry": { "type": "Point", "coordinates": [ -145.958145000191536, -14.402889000027267, 0.0 ] } },
{ "type": "Feature", "properties": { "OBJECTID": 105, "Name": "Rangiroa, French Polynesia", "city_id": "17069", "cable_id": "1916" }, "geometry": { "type": "Point", "coordinates": [ -147.651308999910384, -15.116219000006819, 0.0 ] } },
{ "type": "Feature", "properties": { "OBJECTID": 106, "Name": "Arutua, French Polynesia", "city_id": "17070", "cable_id": "1916" }, "geometry": { "type": "Point", "coordinates": [ -146.786153999707267, -15.289899999984955, 0.0 ] } },
{ "type": "Feature", "properties": { "OBJECTID": 107, "Name": "Kaukura, French Polynesia", "city_id": "17071", "cable_id": "1916" }, "geometry": { "type": "Point", "coordinates": [ -146.673842999654653, -15.741389000302092, 0.0 ] } },
{ "type": "Feature", "properties": { "OBJECTID": 108, "Name": "Fakarava, French Polynesia", "city_id": "17072", "cable_id": "1916" }, "geometry": { "type": "Point", "coordinates": [ -145.624563999928625, -16.310310000306234, 0.0 ] } },
{ "type": "Feature", "properties": { "OBJECTID": 109, "Name": "Makemo, French Polynesia", "city_id": "17073", "cable_id": "1916" }, "geometry": { "type": "Point", "coordinates": [ -143.867191999810871, -16.539557999701838, 0.0 ] } },
{ "type": "Feature", "properties": { "OBJECTID": 110, "Name": "Hitia'a, French Polynesia", "city_id": "17075", "cable_id": "1916" }, "geometry": { "type": "Point", "coordinates": [ -149.308119000391514, -17.723322000409929, 0.0 ] } },
{ "type": "Feature", "properties": { "OBJECTID": 111, "Name": "Hiva Oa, French Polynesia", "city_id": "17077", "cable_id": "1916" }, "geometry": { "type": "Point", "coordinates": [ -139.021125000218518, -9.754672999859002, 0.0 ] } },
{ "type": "Feature", "properties": { "OBJECTID": 112, "Name": "Nuku Hiva, French Polynesia", "city_id": "17076", "cable_id": "1916" }, "geometry": { "type": "Point", "coordinates": [ -140.142096000130266, -8.86048399983663, 0.0 ] } },
{ "type": "Feature", "properties": { "OBJECTID": 113, "Name": "Paramaribo, Suriname", "city_id": "4256", "cable_id": "1913" }, "geometry": { "type": "Point", "coordinates": [ -55.17384400000055, 5.824030000384365, 0.0 ] } },
{ "type": "Feature", "properties": { "OBJECTID": 114, "Name": "Chung Hom Kok, Hong Kong, China", "city_id": "5856", "cable_id": "1933" }, "geometry": { "type": "Point", "coordinates": [ 114.203027999642629, 22.222045000176717, 0.0 ] } },
{ "type": "Feature", "properties": { "OBJECTID": 115, "Name": "Hermosa Beach, California, United States", "city_id": "4966", "cable_id": "1933" }, "geometry": { "type": "Point", "coordinates": [ -118.399546000447486, 33.862237000337409, 0.0 ] } },
{ "type": "Feature", "properties": { "OBJECTID": 116, "Name": "Suro, Guinea-Bissau", "city_id": "17036", "cable_id": "1629" }, "geometry": { "type": "Point", "coordinates": [ -15.79114799988025, 11.774125000068805, 0.0 ] } },
{ "type": "Feature", "properties": { "OBJECTID": 117, "Name": "Duynefontein, South Africa", "city_id": "17037", "cable_id": "1629" }, "geometry": { "type": "Point", "coordinates": [ 18.449911999639163, -33.69330899991035, 0.0 ] } },
{ "type": "Feature", "properties": { "OBJECTID": 118, "Name": "Gwador, Pakistan", "city_id": "16371", "cable_id": "1849" }, "geometry": { "type": "Point", "coordinates": [ 62.325025999950022, 25.132297000406307, 0.0 ] } },
{ "type": "Feature", "properties": { "OBJECTID": 119, "Name": "Karachi, Pakistan", "city_id": "3259", "cable_id": "1849" }, "geometry": { "type": "Point", "coordinates": [ 67.028538999675163, 24.889378000094663, 0.0 ] } },
{ "type": "Feature", "properties": { "OBJECTID": 120, "Name": "Muscat, Oman", "city_id": "4225", "cable_id": "1849" }, "geometry": { "type": "Point", "coordinates": [ 58.591042999634794, 23.615097999872823, 0.0 ] } },
{ "type": "Feature", "properties": { "OBJECTID": 121, "Name": "Tuasivi, Samoa", "city_id": "16520", "cable_id": "1855" }, "geometry": { "type": "Point", "coordinates": [ -172.178161000329908, -13.670589000282016, 0.0 ] } },
{ "type": "Feature", "properties": { "OBJECTID": 122, "Name": "Puerto Montt, Chile", "city_id": "9427", "cable_id": "1922" }, "geometry": { "type": "Point", "coordinates": [ -72.953412999810027, -41.46037099962188, 0.0 ] } },
{ "type": "Feature", "properties": { "OBJECTID": 123, "Name": "Punta Arenas, Chile", "city_id": "15180", "cable_id": "1922" }, "geometry": { "type": "Point", "coordinates": [ -70.933333999664328, -53.166664000243372, 0.0 ] } },
{ "type": "Feature", "properties": { "OBJECTID": 124, "Name": "Puerto Williams, Chile", "city_id": "17032", "cable_id": "1922" }, "geometry": { "type": "Point", "coordinates": [ -67.605857000000498, -54.935193999603342, 0.0 ] } },
{ "type": "Feature", "properties": { "OBJECTID": 125, "Name": "Tortel, Chile", "city_id": "17033", "cable_id": "1922" }, "geometry": { "type": "Point", "coordinates": [ -73.536884999942728, -47.801212999879994, 0.0 ] } },
{ "type": "Feature", "properties": { "OBJECTID": 126, "Name": "Gwadar, Pakistan", "city_id": "16371", "cable_id": "1923" }, "geometry": { "type": "Point", "coordinates": [ 62.324977000388309, 25.132260999645535, 0.0 ] } },
{ "type": "Feature", "properties": { "OBJECTID": 127, "Name": "Westbury, NY, United States", "city_id": "7194", "cable_id": "1961" }, "geometry": { "type": "Point", "coordinates": [ -73.586823999727741, 40.757106999988196, 0.0 ] } },
{ "type": "Feature", "properties": { "OBJECTID": 128, "Name": "Westbury, NY, United States", "city_id": "7194", "cable_id": "1926" }, "geometry": { "type": "Point", "coordinates": [ -73.586823999727741, 40.757106999988196, 0.0 ] } },
{ "type": "Feature", "properties": { "OBJECTID": 129, "Name": "Sarasota, Florida, United States", "city_id": "3779", "cable_id": "1924" }, "geometry": { "type": "Point", "coordinates": [ -82.539626999586332, 27.338875999927524, 0.0 ] } },
{ "type": "Feature", "properties": { "OBJECTID": 130, "Name": "Manta, Ecuador", "city_id": "8918", "cable_id": "1924" }, "geometry": { "type": "Point", "coordinates": [ -80.720834999935235, -0.947182000249077, 0.0 ] } },
{ "type": "Feature", "properties": { "OBJECTID": 131, "Name": "Cancún, Mexico", "city_id": "3842", "cable_id": "1924" }, "geometry": { "type": "Point", "coordinates": [ -86.767566999917051, 21.095665999986011, 0.0 ] } },
{ "type": "Feature", "properties": { "OBJECTID": 132, "Name": "Belize City, Belize", "city_id": "5791", "cable_id": "1924" }, "geometry": { "type": "Point", "coordinates": [ -88.181617000224279, 17.495497000286441, 0.0 ] } },
{ "type": "Feature", "properties": { "OBJECTID": 133, "Name": "Puerto Barrios, Guatemala", "city_id": "5848", "cable_id": "1924" }, "geometry": { "type": "Point", "coordinates": [ -88.597162000425925, 15.72717499972657, 0.0 ] } },
{ "type": "Feature", "properties": { "OBJECTID": 134, "Name": "Trujillo, Honduras", "city_id": "5850", "cable_id": "1924" }, "geometry": { "type": "Point", "coordinates": [ -85.954683000020395, 15.915102000157232, 0.0 ] } },
{ "type": "Feature", "properties": { "OBJECTID": 135, "Name": "Bluefields, Nicaragua", "city_id": "5920", "cable_id": "1924" }, "geometry": { "type": "Point", "coordinates": [ -83.771621000408771, 11.991775999762664, 0.0 ] } },
{ "type": "Feature", "properties": { "OBJECTID": 136, "Name": "Puerto Limon, Costa Rica", "city_id": "5810", "cable_id": "1924" }, "geometry": { "type": "Point", "coordinates": [ -83.037697999562937, 9.988579000220707, 0.0 ] } },
{ "type": "Feature", "properties": { "OBJECTID": 137, "Name": "Maria Chiquita, Panama", "city_id": "5928", "cable_id": "1924" }, "geometry": { "type": "Point", "coordinates": [ -79.753544000355248, 9.437553999917268, 0.0 ] } },
{ "type": "Feature", "properties": { "OBJECTID": 138, "Name": "Balboa, Panama", "city_id": "8722", "cable_id": "1924" }, "geometry": { "type": "Point", "coordinates": [ -79.566679000335583, 8.9500299997848, 0.0 ] } },
{ "type": "Feature", "properties": { "OBJECTID": 139, "Name": "Buffalo, New York, United States", "city_id": "3569", "cable_id": "1925" }, "geometry": { "type": "Point", "coordinates": [ -78.878458999982811, 42.885438000063694, 0.0 ] } },
{ "type": "Feature", "properties": { "OBJECTID": 140, "Name": "Toronto, ON, Canada", "city_id": "3033", "cable_id": "1925" }, "geometry": { "type": "Point", "coordinates": [ -79.385318999672066, 43.648561000289966, 0.0 ] } },
{ "type": "Feature", "properties": { "OBJECTID": 141, "Name": "Punta Salina, PR, United States", "city_id": "17029", "cable_id": "1918" }, "geometry": { "type": "Point", "coordinates": [ -66.185753000200705, 18.472999000403671, 0.0 ] } },
{ "type": "Feature", "properties": { "OBJECTID": 142, "Name": "Dania Beach, FL, United States", "city_id": "17028", "cable_id": "1917" }, "geometry": { "type": "Point", "coordinates": [ -80.143943000169259, 26.052317000029625, 0.0 ] } },
{ "type": "Feature", "properties": { "OBJECTID": 143, "Name": "Guantanamo Bay, Cuba", "city_id": "17027", "cable_id": "1918" }, "geometry": { "type": "Point", "coordinates": [ -75.158161000329841, 19.939612000093863, 0.0 ] } },
{ "type": "Feature", "properties": { "OBJECTID": 144, "Name": "Guantanamo Bay, Cuba", "city_id": "17027", "cable_id": "1917" }, "geometry": { "type": "Point", "coordinates": [ -75.158161000329841, 19.939612000093863, 0.0 ] } },
{ "type": "Feature", "properties": { "OBJECTID": 145, "Name": "Esbjerg, Denmark", "city_id": "3250", "cable_id": "1912" }, "geometry": { "type": "Point", "coordinates": [ 8.456899000088832, 55.465218000210584, 0.0 ] } },
{ "type": "Feature", "properties": { "OBJECTID": 146, "Name": "Newcastle, United Kingdom", "city_id": "4495", "cable_id": "1912" }, "geometry": { "type": "Point", "coordinates": [ -1.617777999954695, 54.978254999868398, 0.0 ] } },
{ "type": "Feature", "properties": { "OBJECTID": 147, "Name": "Endrup, Denmark", "city_id": "16951", "cable_id": "1904" }, "geometry": { "type": "Point", "coordinates": [ 8.718385999614249, 55.523115000057295, 0.0 ] } },
{ "type": "Feature", "properties": { "OBJECTID": 148, "Name": "Eemshaven, Netherlands", "city_id": "5916", "cable_id": "1904" }, "geometry": { "type": "Point", "coordinates": [ 6.816019000376648, 53.442806000396658, 0.0 ] } },
{ "type": "Feature", "properties": { "OBJECTID": 149, "Name": "Schoelcher, Martinique", "city_id": "17024", "cable_id": "1914" }, "geometry": { "type": "Point", "coordinates": [ -61.112135000329907, 14.629007000073059, 0.0 ] } },
{ "type": "Feature", "properties": { "OBJECTID": 150, "Name": "Kourou, French Guiana", "city_id": "8833", "cable_id": "1914" }, "geometry": { "type": "Point", "coordinates": [ -52.645549999732687, 5.168292999722242, 0.0 ] } },
{ "type": "Feature", "properties": { "OBJECTID": 151, "Name": "Flying Fish Cove, Christmas Island", "city_id": "17023", "cable_id": "1683" }, "geometry": { "type": "Point", "coordinates": [ 105.697075000211143, -10.437362999702584, 0.0 ] } },
{ "type": "Feature", "properties": { "OBJECTID": 152, "Name": "Leava, Wallis and Futuna", "city_id": "17016", "cable_id": "1855" }, "geometry": { "type": "Point", "coordinates": [ -178.158107999784306, -14.296833999789227, 0.0 ] } },
{ "type": "Feature", "properties": { "OBJECTID": 153, "Name": "Mata-Utu, Wallis and Futuna", "city_id": "16955", "cable_id": "1855" }, "geometry": { "type": "Point", "coordinates": [ -176.175000000349712, -13.281990999884647, 0.0 ] } },
{ "type": "Feature", "properties": { "OBJECTID": 154, "Name": "Savusavu, Fiji", "city_id": "17015", "cable_id": "1855" }, "geometry": { "type": "Point", "coordinates": [ 179.349749999762736, -16.808014999592498, 0.0 ] } },
{ "type": "Feature", "properties": { "OBJECTID": 155, "Name": "Boca Raton, FL, United States", "city_id": "3563", "cable_id": "1913" }, "geometry": { "type": "Point", "coordinates": [ -80.088938999735049, 26.350509999736808, 0.0 ] } },
{ "type": "Feature", "properties": { "OBJECTID": 156, "Name": "Naples, FL, United States", "city_id": "3708", "cable_id": "1791" }, "geometry": { "type": "Point", "coordinates": [ -81.795792000300523, 26.139095999880585, 0.0 ] } },
{ "type": "Feature", "properties": { "OBJECTID": 157, "Name": "Naples, FL, United States", "city_id": "3708", "cable_id": "1913" }, "geometry": { "type": "Point", "coordinates": [ -81.795792000300523, 26.139095999880585, 0.0 ] } },
{ "type": "Feature", "properties": { "OBJECTID": 158, "Name": "Arcahaie, Haiti", "city_id": "16979", "cable_id": "1913" }, "geometry": { "type": "Point", "coordinates": [ -72.513094000187891, 18.770338000298487, 0.0 ] } },
{ "type": "Feature", "properties": { "OBJECTID": 159, "Name": "Kingston, Jamaica", "city_id": "3272", "cable_id": "1913" }, "geometry": { "type": "Point", "coordinates": [ -76.792131999791934, 17.992603999874785, 0.0 ] } },
{ "type": "Feature", "properties": { "OBJECTID": 160, "Name": "Ocho Rios, Jamaica", "city_id": "7688", "cable_id": "1913" }, "geometry": { "type": "Point", "coordinates": [ -77.103228000072065, 18.398573000044006, 0.0 ] } },
{ "type": "Feature", "properties": { "OBJECTID": 161, "Name": "Montego Bay, Jamaica", "city_id": "7687", "cable_id": "1913" }, "geometry": { "type": "Point", "coordinates": [ -77.921380000086899, 18.469360999910361, 0.0 ] } },
{ "type": "Feature", "properties": { "OBJECTID": 162, "Name": "Puerto Plata, Dominican Republic", "city_id": "5823", "cable_id": "1913" }, "geometry": { "type": "Point", "coordinates": [ -70.691182999695599, 19.79936499959511, 0.0 ] } },
{ "type": "Feature", "properties": { "OBJECTID": 163, "Name": "San Juan, PR, United States", "city_id": "4262", "cable_id": "1913" }, "geometry": { "type": "Point", "coordinates": [ -66.106663999743731, 18.466029000038464, 0.0 ] } },
{ "type": "Feature", "properties": { "OBJECTID": 164, "Name": "Providenciales, Turks and Caicos Islands", "city_id": "4258", "cable_id": "1913" }, "geometry": { "type": "Point", "coordinates": [ -72.120235000245032, 21.851072999619323, 0.0 ] } },
{ "type": "Feature", "properties": { "OBJECTID": 165, "Name": "Maria Chiquita, Panama", "city_id": "5928", "cable_id": "1913" }, "geometry": { "type": "Point", "coordinates": [ -79.753544000355248, 9.437553999917268, 0.0 ] } },
{ "type": "Feature", "properties": { "OBJECTID": 166, "Name": "Cartagena, Colombia", "city_id": "5693", "cable_id": "1924" }, "geometry": { "type": "Point", "coordinates": [ -75.505682999570766, 10.387016000188359, 0.0 ] } },
{ "type": "Feature", "properties": { "OBJECTID": 167, "Name": "Barranquilla, Colombia", "city_id": "4315", "cable_id": "1913" }, "geometry": { "type": "Point", "coordinates": [ -74.779779999847023, 10.940434000229084, 0.0 ] } },
{ "type": "Feature", "properties": { "OBJECTID": 168, "Name": "Hudishibana, Aruba", "city_id": "10790", "cable_id": "1913" }, "geometry": { "type": "Point", "coordinates": [ -70.049997000061438, 12.61667800028957, 0.0 ] } },
{ "type": "Feature", "properties": { "OBJECTID": 169, "Name": "Willemstad, Curaçao", "city_id": "4275", "cable_id": "1913" }, "geometry": { "type": "Point", "coordinates": [ -68.896469999790611, 12.095584999847921, 0.0 ] } },
{ "type": "Feature", "properties": { "OBJECTID": 170, "Name": "Kralendijk, Bonaire, Sint Eustatius and Saba", "city_id": "17005", "cable_id": "1913" }, "geometry": { "type": "Point", "coordinates": [ -68.265548999586585, 12.14433999989113, 0.0 ] } },
{ "type": "Feature", "properties": { "OBJECTID": 171, "Name": "Manzanilla, Trinidad and Tobago", "city_id": "17006", "cable_id": "1913" }, "geometry": { "type": "Point", "coordinates": [ -61.038148000429807, 10.506571999797989, 0.0 ] } },
{ "type": "Feature", "properties": { "OBJECTID": 172, "Name": "Rockly Bay, Trinidad and Tobago", "city_id": "17007", "cable_id": "1913" }, "geometry": { "type": "Point", "coordinates": [ -60.735341000186956, 11.182451000313476, 0.0 ] } },
{ "type": "Feature", "properties": { "OBJECTID": 173, "Name": "Tortola, Virgin Islands (U.K.)", "city_id": "9589", "cable_id": "1913" }, "geometry": { "type": "Point", "coordinates": [ -64.597240999872213, 18.41478400028139, 0.0 ] } },
{ "type": "Feature", "properties": { "OBJECTID": 174, "Name": "Chaguaramas, Trinidad and Tobago", "city_id": "8838", "cable_id": "1913" }, "geometry": { "type": "Point", "coordinates": [ -61.650806000196724, 10.686137000422322, 0.0 ] } },
{ "type": "Feature", "properties": { "OBJECTID": 175, "Name": "Nelson, New Zealand", "city_id": "7850", "cable_id": "1486" }, "geometry": { "type": "Point", "coordinates": [ 173.283957000315326, -41.272260999745306, 0.0 ] } },
{ "type": "Feature", "properties": { "OBJECTID": 176, "Name": "Levin, New Zealand", "city_id": "7849", "cable_id": "1486" }, "geometry": { "type": "Point", "coordinates": [ 175.285322999956605, -40.625288000340895, 0.0 ] } },
{ "type": "Feature", "properties": { "OBJECTID": 177, "Name": "Gustavia, Saint Barthélemy", "city_id": "15452", "cable_id": "1619" }, "geometry": { "type": "Point", "coordinates": [ -62.850550000382142, 17.897914000330957, 0.0 ] } },
{ "type": "Feature", "properties": { "OBJECTID": 178, "Name": "St. Louis, Saint Martin", "city_id": "16976", "cable_id": "1619" }, "geometry": { "type": "Point", "coordinates": [ -63.078136999622771, 18.08992999956984, 0.0 ] } },
{ "type": "Feature", "properties": { "OBJECTID": 179, "Name": "Baie-Mahault, Guadeloupe", "city_id": "16975", "cable_id": "1619" }, "geometry": { "type": "Point", "coordinates": [ -61.571716999739699, 16.244471999583247, 0.0 ] } },
{ "type": "Feature", "properties": { "OBJECTID": 180, "Name": "Copa Club, Jamaica", "city_id": "16969", "cable_id": "1554" }, "geometry": { "type": "Point", "coordinates": [ -76.689360999910193, 17.942958000111723, 0.0 ] } },
{ "type": "Feature", "properties": { "OBJECTID": 181, "Name": "Puducherry, India", "city_id": "15820", "cable_id": "1901" }, "geometry": { "type": "Point", "coordinates": [ 79.737199999580355, 11.914358999967956, 0.0 ] } },
{ "type": "Feature", "properties": { "OBJECTID": 182, "Name": "East London, South Africa", "city_id": "9248", "cable_id": "1901" }, "geometry": { "type": "Point", "coordinates": [ 27.866667999928346, -32.983324000402263, 0.0 ] } },
{ "type": "Feature", "properties": { "OBJECTID": 183, "Name": "Weno, Chuuk", "city_id": "16967", "cable_id": "1908" }, "geometry": { "type": "Point", "coordinates": [ 151.858479000405623, 7.43999599961573, 0.0 ] } },
{ "type": "Feature", "properties": { "OBJECTID": 184, "Name": "Magachgil, Yap, Federated States of Micronesia", "city_id": "16966", "cable_id": "1823" }, "geometry": { "type": "Point", "coordinates": [ 138.061488000370986, 9.443925999685165, 0.0 ] } },
{ "type": "Feature", "properties": { "OBJECTID": 185, "Name": "Ngeremlengui, Palau", "city_id": "7822", "cable_id": "1823" }, "geometry": { "type": "Point", "coordinates": [ 134.560952999781222, 7.531744000185552, 0.0 ] } },
{ "type": "Feature", "properties": { "OBJECTID": 186, "Name": "San Fernando City, Philippines", "city_id": "9389", "cable_id": "1858" }, "geometry": { "type": "Point", "coordinates": [ 120.311277000033542, 16.618898000242627, 0.0 ] } },
{ "type": "Feature", "properties": { "OBJECTID": 187, "Name": "Aurora, Philippines", "city_id": "16965", "cable_id": "1858" }, "geometry": { "type": "Point", "coordinates": [ 121.769260000148961, 16.077369999925661, 0.0 ] } },
{ "type": "Feature", "properties": { "OBJECTID": 188, "Name": "El Segundo, California, United States", "city_id": "4096", "cable_id": "1858" }, "geometry": { "type": "Point", "coordinates": [ -118.415952999831063, 33.919914999977323, 0.0 ] } },
{ "type": "Feature", "properties": { "OBJECTID": 189, "Name": "Sangano, Angola", "city_id": "10727", "cable_id": "1560" }, "geometry": { "type": "Point", "coordinates": [ 13.20144099970241, -9.490073999815161, 0.0 ] } },
{ "type": "Feature", "properties": { "OBJECTID": 190, "Name": "Aden, Yemen", "city_id": "5969", "cable_id": "1307" }, "geometry": { "type": "Point", "coordinates": [ 45.033530000409243, 12.800686999905228, 0.0 ] } },
{ "type": "Feature", "properties": { "OBJECTID": 191, "Name": "Djibouti City, Djibouti", "city_id": "4177", "cable_id": "1923" }, "geometry": { "type": "Point", "coordinates": [ 43.147983999861808, 11.594681999674645, 0.0 ] } },
{ "type": "Feature", "properties": { "OBJECTID": 192, "Name": "Djibouti City, Djibouti", "city_id": "4177", "cable_id": "1307" }, "geometry": { "type": "Point", "coordinates": [ 43.147983999861808, 11.594681999674645, 0.0 ] } },
{ "type": "Feature", "properties": { "OBJECTID": 193, "Name": "BP Clair Ridge, United Kingdom", "city_id": "16809", "cable_id": "1576" }, "geometry": { "type": "Point", "coordinates": [ -2.294926999681226, 60.441044999627088, 0.0 ] } },
{ "type": "Feature", "properties": { "OBJECTID": 194, "Name": "Baie Longue, SaintMartin", "city_id": "16758", "cable_id": "1245" }, "geometry": { "type": "Point", "coordinates": [ -63.145703000193237, 18.059657000170557, 0.0 ] } },
{ "type": "Feature", "properties": { "OBJECTID": 195, "Name": "Philipsburg, Sint Maarten", "city_id": "10783", "cable_id": "1245" }, "geometry": { "type": "Point", "coordinates": [ -63.045824999723855, 18.030200999776397, 0.0 ] } },
{ "type": "Feature", "properties": { "OBJECTID": 196, "Name": "Mamoudzou, Mayotte", "city_id": "9134", "cable_id": "1872" }, "geometry": { "type": "Point", "coordinates": [ 45.233286000448643, -12.783308999610579, 0.0 ] } },
{ "type": "Feature", "properties": { "OBJECTID": 197, "Name": "Perth, Australia", "city_id": "3239", "cable_id": "1818" }, "geometry": { "type": "Point", "coordinates": [ 115.857227000225919, -31.953442000347984, 0.0 ] } },
{ "type": "Feature", "properties": { "OBJECTID": 198, "Name": "Sydney, Australia", "city_id": "3030", "cable_id": "1818" }, "geometry": { "type": "Point", "coordinates": [ 151.206989999588899, -33.869871999692968, 0.0 ] } },
{ "type": "Feature", "properties": { "OBJECTID": 199, "Name": "Port Moresby, Papua New Guinea", "city_id": "3925", "cable_id": "1898" }, "geometry": { "type": "Point", "coordinates": [ 147.188509999836725, -9.479599999740142, 0.0 ] } },
{ "type": "Feature", "properties": { "OBJECTID": 200, "Name": "Kikori, Papua New Guinea", "city_id": "16730", "cable_id": "1898" }, "geometry": { "type": "Point", "coordinates": [ 144.240195999845611, -7.413512000278493, 0.0 ] } },
{ "type": "Feature", "properties": { "OBJECTID": 201, "Name": "Sisimiut, Greenland", "city_id": "16720", "cable_id": "1897" }, "geometry": { "type": "Point", "coordinates": [ -53.673380999633366, 66.939467000201944, 0.0 ] } },
{ "type": "Feature", "properties": { "OBJECTID": 202, "Name": "Maniitsoq, Greenland", "city_id": "16719", "cable_id": "1897" }, "geometry": { "type": "Point", "coordinates": [ -52.905717999585953, 65.407680999678504, 0.0 ] } },
{ "type": "Feature", "properties": { "OBJECTID": 203, "Name": "Aasiaat, Greenland", "city_id": "16718", "cable_id": "1897" }, "geometry": { "type": "Point", "coordinates": [ -52.859110999672829, 68.706970999911789, 0.0 ] } },
{ "type": "Feature", "properties": { "OBJECTID": 204, "Name": "Singapore, Singapore", "city_id": "3029", "cable_id": "1895" }, "geometry": { "type": "Point", "coordinates": [ 103.853105999642281, 1.293881000407939, 0.0 ] } },
{ "type": "Feature", "properties": { "OBJECTID": 205, "Name": "Dumai, Indonesia", "city_id": "7311", "cable_id": "1895" }, "geometry": { "type": "Point", "coordinates": [ 101.447638999640233, 1.665608999855549, 0.0 ] } },
{ "type": "Feature", "properties": { "OBJECTID": 206, "Name": "Batam, Indonesia", "city_id": "5862", "cable_id": "1895" }, "geometry": { "type": "Point", "coordinates": [ 103.962506000351766, 1.134726000304813, 0.0 ] } },
{ "type": "Feature", "properties": { "OBJECTID": 207, "Name": "Jakarta, Indonesia", "city_id": "3012", "cable_id": "1744" }, "geometry": { "type": "Point", "coordinates": [ 106.827861000384885, -6.171593999563334, 0.0 ] } },
{ "type": "Feature", "properties": { "OBJECTID": 208, "Name": "Jakarta, Indonesia", "city_id": "3012", "cable_id": "1895" }, "geometry": { "type": "Point", "coordinates": [ 106.827861000384885, -6.171593999563334, 0.0 ] } },
{ "type": "Feature", "properties": { "OBJECTID": 209, "Name": "Bali, Indonesia", "city_id": "9595", "cable_id": "1895" }, "geometry": { "type": "Point", "coordinates": [ 115.596973000004041, -8.464415000252032, 0.0 ] } },
{ "type": "Feature", "properties": { "OBJECTID": 210, "Name": "Waingapu, Indonesia", "city_id": "14652", "cable_id": "1938" }, "geometry": { "type": "Point", "coordinates": [ 120.252902999773696, -9.646103999699791, 0.0 ] } },
{ "type": "Feature", "properties": { "OBJECTID": 211, "Name": "Seba, Indonesia", "city_id": "16684", "cable_id": "1938" }, "geometry": { "type": "Point", "coordinates": [ 121.879903999769752, -10.457821999785436, 0.0 ] } },
{ "type": "Feature", "properties": { "OBJECTID": 212, "Name": "Baa, Indonesia", "city_id": "17096", "cable_id": "1938" }, "geometry": { "type": "Point", "coordinates": [ 123.035274999641643, -10.73333500040988, 0.0 ] } },
{ "type": "Feature", "properties": { "OBJECTID": 213, "Name": "Kupang, Indonesia", "city_id": "14653", "cable_id": "1938" }, "geometry": { "type": "Point", "coordinates": [ 123.583322000210273, -10.183334999710391, 0.0 ] } },
{ "type": "Feature", "properties": { "OBJECTID": 214, "Name": "Kokar, Indonesia", "city_id": "17097", "cable_id": "1938" }, "geometry": { "type": "Point", "coordinates": [ 124.453463000117395, -8.158311999998778, 0.0 ] } },
{ "type": "Feature", "properties": { "OBJECTID": 215, "Name": "Tiakur, Indonesia", "city_id": "16683", "cable_id": "1938" }, "geometry": { "type": "Point", "coordinates": [ 125.573725999755197, -8.282920999704331, 0.0 ] } },
{ "type": "Feature", "properties": { "OBJECTID": 216, "Name": "Serwaru, Indonesia", "city_id": "17098", "cable_id": "1938" }, "geometry": { "type": "Point", "coordinates": [ 127.69149800033253, -8.158115999953381, 0.0 ] } },
{ "type": "Feature", "properties": { "OBJECTID": 217, "Name": "Suemlaki, Indonesia", "city_id": "17099", "cable_id": "1938" }, "geometry": { "type": "Point", "coordinates": [ 131.213053999942247, -8.052232999553215, 0.0 ] } },
{ "type": "Feature", "properties": { "OBJECTID": 218, "Name": "Tual, Indonesia", "city_id": "16632", "cable_id": "1938" }, "geometry": { "type": "Point", "coordinates": [ 132.752092000345584, -5.626575000136037, 0.0 ] } },
{ "type": "Feature", "properties": { "OBJECTID": 219, "Name": "Kep. Aru, Indonesia", "city_id": "16681", "cable_id": "1938" }, "geometry": { "type": "Point", "coordinates": [ 134.550185999684288, -6.19464100028187, 0.0 ] } },
{ "type": "Feature", "properties": { "OBJECTID": 220, "Name": "Timika, Indonesia", "city_id": "16575", "cable_id": "1938" }, "geometry": { "type": "Point", "coordinates": [ 136.889564999825041, -4.550306000421535, 0.0 ] } },
{ "type": "Feature", "properties": { "OBJECTID": 221, "Name": "Agats, Indonesia", "city_id": "16672", "cable_id": "1938" }, "geometry": { "type": "Point", "coordinates": [ 138.121352000094873, -5.535631999816892, 0.0 ] } },
{ "type": "Feature", "properties": { "OBJECTID": 222, "Name": "Kota Mappi, Indonesia", "city_id": "17100", "cable_id": "1938" }, "geometry": { "type": "Point", "coordinates": [ 139.396497999782895, -7.10245299990594, 0.0 ] } },
{ "type": "Feature", "properties": { "OBJECTID": 223, "Name": "Nabire, Indonesia", "city_id": "16665", "cable_id": "1938" }, "geometry": { "type": "Point", "coordinates": [ 135.501626000339655, -3.372230000314192, 0.0 ] } },
{ "type": "Feature", "properties": { "OBJECTID": 224, "Name": "Yapen, Indonesia", "city_id": "16660", "cable_id": "1938" }, "geometry": { "type": "Point", "coordinates": [ 136.156973000103875, -1.756116999699704, 0.0 ] } },
{ "type": "Feature", "properties": { "OBJECTID": 225, "Name": "Supiori, Indonesia", "city_id": "16659", "cable_id": "1938" }, "geometry": { "type": "Point", "coordinates": [ 135.638515999813706, -0.729507000347712, 0.0 ] } },
{ "type": "Feature", "properties": { "OBJECTID": 226, "Name": "Manokwari, Indonesia", "city_id": "16630", "cable_id": "1938" }, "geometry": { "type": "Point", "coordinates": [ 134.06205200019977, -0.861464999909728, 0.0 ] } },
{ "type": "Feature", "properties": { "OBJECTID": 227, "Name": "Teluk, Indonesia", "city_id": "17101", "cable_id": "1938" }, "geometry": { "type": "Point", "coordinates": [ 133.482144999891943, -2.202382000129125, 0.0 ] } },
{ "type": "Feature", "properties": { "OBJECTID": 228, "Name": "Natuna, Indonesia", "city_id": "16642", "cable_id": "1939" }, "geometry": { "type": "Point", "coordinates": [ 108.142875000381053, 3.945661999901448, 0.0 ] } },
{ "type": "Feature", "properties": { "OBJECTID": 229, "Name": "Batam, Indonesia", "city_id": "5862", "cable_id": "1939" }, "geometry": { "type": "Point", "coordinates": [ 103.962506000351766, 1.134726000304813, 0.0 ] } },
{ "type": "Feature", "properties": { "OBJECTID": 230, "Name": "Lingga, Indonesia", "city_id": "16645", "cable_id": "1939" }, "geometry": { "type": "Point", "coordinates": [ 104.635454999748461, -0.162758999827927, 0.0 ] } },
{ "type": "Feature", "properties": { "OBJECTID": 231, "Name": "Singkawang, Indonesia", "city_id": "17091", "cable_id": "1939" }, "geometry": { "type": "Point", "coordinates": [ 108.987210000041557, 0.906014999592614, 0.0 ] } },
{ "type": "Feature", "properties": { "OBJECTID": 232, "Name": "Terempa, Indonesia", "city_id": "16635", "cable_id": "1939" }, "geometry": { "type": "Point", "coordinates": [ 106.211137000172485, 3.207136999972688, 0.0 ] } },
{ "type": "Feature", "properties": { "OBJECTID": 233, "Name": "Makassar, Indonesia", "city_id": "9720", "cable_id": "1895" }, "geometry": { "type": "Point", "coordinates": [ 119.412400999706378, -5.152185000437361, 0.0 ] } },
{ "type": "Feature", "properties": { "OBJECTID": 234, "Name": "Balikpapan, Indonesia", "city_id": "9716", "cable_id": "1895" }, "geometry": { "type": "Point", "coordinates": [ 116.831201000425921, -1.265371000271352, 0.0 ] } },
{ "type": "Feature", "properties": { "OBJECTID": 235, "Name": "Tarakan, Indonesia", "city_id": "16618", "cable_id": "1895" }, "geometry": { "type": "Point", "coordinates": [ 117.578515000067213, 3.32735200029471, 0.0 ] } },
{ "type": "Feature", "properties": { "OBJECTID": 236, "Name": "Manado, Indonesia", "city_id": "15115", "cable_id": "1895" }, "geometry": { "type": "Point", "coordinates": [ 124.839620000362828, 1.490828999558818, 0.0 ] } },
{ "type": "Feature", "properties": { "OBJECTID": 237, "Name": "Madura, Indonesia", "city_id": "16717", "cable_id": "1895" }, "geometry": { "type": "Point", "coordinates": [ 113.283472999879137, -6.902281999614546, 0.0 ] } },
{ "type": "Feature", "properties": { "OBJECTID": 238, "Name": "Mtunzini, South Africa", "city_id": "5942", "cable_id": "1878" }, "geometry": { "type": "Point", "coordinates": [ 31.757853000215871, -28.950440000105814, 0.0 ] } },
{ "type": "Feature", "properties": { "OBJECTID": 239, "Name": "Jeddah, Saudi Arabia", "city_id": "4361", "cable_id": "1878" }, "geometry": { "type": "Point", "coordinates": [ 39.182872999789147, 21.481541999863449, 0.0 ] } },
{ "type": "Feature", "properties": { "OBJECTID": 240, "Name": "Zafarana, Egypt", "city_id": "9486", "cable_id": "1878" }, "geometry": { "type": "Point", "coordinates": [ 32.649893000061972, 29.116657999666952, 0.0 ] } },
{ "type": "Feature", "properties": { "OBJECTID": 241, "Name": "Karachi, Pakistan", "city_id": "3259", "cable_id": "1923" }, "geometry": { "type": "Point", "coordinates": [ 67.028538999675163, 24.889682999770731, 0.0 ] } },
{ "type": "Feature", "properties": { "OBJECTID": 242, "Name": "Karachi, Pakistan", "city_id": "3259", "cable_id": "1878" }, "geometry": { "type": "Point", "coordinates": [ 67.028538999675163, 24.889682999770731, 0.0 ] } },
{ "type": "Feature", "properties": { "OBJECTID": 243, "Name": "Antsiranana, Madagascar", "city_id": "13489", "cable_id": "1878" }, "geometry": { "type": "Point", "coordinates": [ 49.292170000045559, -12.275252999626167, 0.0 ] } },
{ "type": "Feature", "properties": { "OBJECTID": 244, "Name": "Terre Rouge, Mauritius", "city_id": "9400", "cable_id": "1878" }, "geometry": { "type": "Point", "coordinates": [ 57.510085999569299, -20.077812999570231, 0.0 ] } },
{ "type": "Feature", "properties": { "OBJECTID": 245, "Name": "Port Sudan, Sudan", "city_id": "5950", "cable_id": "1878" }, "geometry": { "type": "Point", "coordinates": [ 37.219691000139633, 19.61555200002481, 0.0 ] } },
{ "type": "Feature", "properties": { "OBJECTID": 246, "Name": "Mombasa, Kenya", "city_id": "5896", "cable_id": "1923" }, "geometry": { "type": "Point", "coordinates": [ 39.672839000119879, -4.053015999588601, 0.0 ] } },
{ "type": "Feature", "properties": { "OBJECTID": 247, "Name": "Mombasa, Kenya", "city_id": "5896", "cable_id": "1878" }, "geometry": { "type": "Point", "coordinates": [ 39.672839000119879, -4.053015999588601, 0.0 ] } },
{ "type": "Feature", "properties": { "OBJECTID": 248, "Name": "Hanko, Finland", "city_id": "7694", "cable_id": "1710" }, "geometry": { "type": "Point", "coordinates": [ 22.968221000398941, 59.823211000387388, 0.0 ] } },
{ "type": "Feature", "properties": { "OBJECTID": 249, "Name": "Hanko, Finland", "city_id": "7694", "cable_id": "1816" }, "geometry": { "type": "Point", "coordinates": [ 22.968221000398941, 59.823211000387388, 0.0 ] } },
{ "type": "Feature", "properties": { "OBJECTID": 250, "Name": "Bomba, Belize", "city_id": "16711", "cable_id": "1893" }, "geometry": { "type": "Point", "coordinates": [ -88.294458000436322, 17.925610999648011, 0.0 ] } },
{ "type": "Feature", "properties": { "OBJECTID": 251, "Name": "San Pedro, Belize", "city_id": "16710", "cable_id": "1893" }, "geometry": { "type": "Point", "coordinates": [ -87.978344999921745, 17.911036000211393, 0.0 ] } },
{ "type": "Feature", "properties": { "OBJECTID": 252, "Name": "Kiamsam, Malaysia", "city_id": "16695", "cable_id": "1891" }, "geometry": { "type": "Point", "coordinates": [ 115.168945999758193, 5.255328999733614, 0.0 ] } },
{ "type": "Feature", "properties": { "OBJECTID": 253, "Name": "São Mateus, Brazil", "city_id": "5506", "cable_id": "1888" }, "geometry": { "type": "Point", "coordinates": [ -39.85913000044912, -18.716704999935715, 0.0 ] } },
{ "type": "Feature", "properties": { "OBJECTID": 254, "Name": "Porto Seguro, Brazil", "city_id": "5493", "cable_id": "1888" }, "geometry": { "type": "Point", "coordinates": [ -39.064696999766682, -16.451080999788225, 0.0 ] } },
{ "type": "Feature", "properties": { "OBJECTID": 255, "Name": "Ilhéus, Brazil", "city_id": "4590", "cable_id": "1888" }, "geometry": { "type": "Point", "coordinates": [ -39.047704000339259, -14.787972000207567, 0.0 ] } },
{ "type": "Feature", "properties": { "OBJECTID": 256, "Name": "Salvador, Brazil", "city_id": "3342", "cable_id": "1888" }, "geometry": { "type": "Point", "coordinates": [ -38.504541000166917, -12.969978999631103, 0.0 ] } },
{ "type": "Feature", "properties": { "OBJECTID": 257, "Name": "Aracajú, Brazil", "city_id": "3356", "cable_id": "1888" }, "geometry": { "type": "Point", "coordinates": [ -37.074804999550985, -10.909604000124398, 0.0 ] } },
{ "type": "Feature", "properties": { "OBJECTID": 258, "Name": "Maceió, Brazil", "city_id": "3344", "cable_id": "1888" }, "geometry": { "type": "Point", "coordinates": [ -35.73496200029598, -9.666464999759873, 0.0 ] } },
{ "type": "Feature", "properties": { "OBJECTID": 259, "Name": "Recife, Brazil", "city_id": "3352", "cable_id": "1929" }, "geometry": { "type": "Point", "coordinates": [ -34.87197400019987, -8.055333000417608, 0.0 ] } },
{ "type": "Feature", "properties": { "OBJECTID": 260, "Name": "Recife, Brazil", "city_id": "3352", "cable_id": "1888" }, "geometry": { "type": "Point", "coordinates": [ -34.87197400019987, -8.055333000417608, 0.0 ] } },
{ "type": "Feature", "properties": { "OBJECTID": 261, "Name": "João Pessoa, Brazil", "city_id": "3351", "cable_id": "1888" }, "geometry": { "type": "Point", "coordinates": [ -34.861037000357207, -7.115295000363933, 0.0 ] } },
{ "type": "Feature", "properties": { "OBJECTID": 262, "Name": "Natal, Brazil", "city_id": "3354", "cable_id": "1888" }, "geometry": { "type": "Point", "coordinates": [ -35.211183000095318, -5.79483600018118, 0.0 ] } },
{ "type": "Feature", "properties": { "OBJECTID": 263, "Name": "Rio de Janeiro, Brazil", "city_id": "3242", "cable_id": "1964" }, "geometry": { "type": "Point", "coordinates": [ -43.20956799956344, -22.903397000171353, 0.0 ] } },
{ "type": "Feature", "properties": { "OBJECTID": 264, "Name": "Rio de Janeiro, Brazil", "city_id": "3242", "cable_id": "1888" }, "geometry": { "type": "Point", "coordinates": [ -43.20956799956344, -22.903397000171353, 0.0 ] } },
{ "type": "Feature", "properties": { "OBJECTID": 265, "Name": "Vitória, Brazil", "city_id": "3343", "cable_id": "1888" }, "geometry": { "type": "Point", "coordinates": [ -40.301659000362463, -20.294024000307303, 0.0 ] } },
{ "type": "Feature", "properties": { "OBJECTID": 266, "Name": "Macaé, Brazil", "city_id": "3387", "cable_id": "1888" }, "geometry": { "type": "Point", "coordinates": [ -41.785642999824496, -22.371806000346538, 0.0 ] } },
{ "type": "Feature", "properties": { "OBJECTID": 267, "Name": "Sitio, Brazil", "city_id": "16689", "cable_id": "1888" }, "geometry": { "type": "Point", "coordinates": [ -37.570508000044121, -11.846664000443219, 0.0 ] } },
{ "type": "Feature", "properties": { "OBJECTID": 268, "Name": "Atafona, Brazil", "city_id": "16690", "cable_id": "1888" }, "geometry": { "type": "Point", "coordinates": [ -41.027244999856798, -21.631156999595795, 0.0 ] } },
{ "type": "Feature", "properties": { "OBJECTID": 269, "Name": "Thinadhoo, Maldives", "city_id": "16505", "cable_id": "1868" }, "geometry": { "type": "Point", "coordinates": [ 72.997676999793796, 0.531088000111162, 0.0 ] } },
{ "type": "Feature", "properties": { "OBJECTID": 270, "Name": "Kolhufushi, Maldives", "city_id": "16506", "cable_id": "1868" }, "geometry": { "type": "Point", "coordinates": [ 73.42462999997457, 2.776765999551358, 0.0 ] } },
{ "type": "Feature", "properties": { "OBJECTID": 271, "Name": "Oranjestad Bay, Bonaire, Sint Eustatius and Saba", "city_id": "16283", "cable_id": "1807" }, "geometry": { "type": "Point", "coordinates": [ -62.987036000111303, 17.481849000431133, 0.0 ] } },
{ "type": "Feature", "properties": { "OBJECTID": 272, "Name": "Fort Bay, Bonaire, Sint Eustatius and Saba", "city_id": "16282", "cable_id": "1807" }, "geometry": { "type": "Point", "coordinates": [ -63.251636000201195, 17.616492999752239, 0.0 ] } },
{ "type": "Feature", "properties": { "OBJECTID": 273, "Name": "Great Bay Beach, Saint Martin", "city_id": "16123", "cable_id": "1807" }, "geometry": { "type": "Point", "coordinates": [ -63.055053999942082, 18.024451999959833, 0.0 ] } },
{ "type": "Feature", "properties": { "OBJECTID": 274, "Name": "Terempa, Indonesia", "city_id": "16635", "cable_id": "1886" }, "geometry": { "type": "Point", "coordinates": [ 106.211137000172485, 3.207136999972688, 0.0 ] } },
{ "type": "Feature", "properties": { "OBJECTID": 275, "Name": "Penarik, Indonesia", "city_id": "16634", "cable_id": "1886" }, "geometry": { "type": "Point", "coordinates": [ 108.290237999883871, 3.666756000189384, 0.0 ] } },
{ "type": "Feature", "properties": { "OBJECTID": 276, "Name": "Jayapura, Indonesia", "city_id": "16627", "cable_id": "1885" }, "geometry": { "type": "Point", "coordinates": [ 140.669104000149616, -2.591565999671124, 0.0 ] } },
{ "type": "Feature", "properties": { "OBJECTID": 277, "Name": "Sarmi, Indonesia", "city_id": "16628", "cable_id": "1885" }, "geometry": { "type": "Point", "coordinates": [ 139.353284999902996, -2.175233000002851, 0.0 ] } },
{ "type": "Feature", "properties": { "OBJECTID": 278, "Name": "Biak, Indonesia", "city_id": "16629", "cable_id": "1885" }, "geometry": { "type": "Point", "coordinates": [ 136.053286000248846, -1.163465999856003, 0.0 ] } },
{ "type": "Feature", "properties": { "OBJECTID": 279, "Name": "Manokwari, Indonesia", "city_id": "16630", "cable_id": "1885" }, "geometry": { "type": "Point", "coordinates": [ 134.062002999738809, -0.861464999909728, 0.0 ] } },
{ "type": "Feature", "properties": { "OBJECTID": 280, "Name": "Sorong, Indonesia", "city_id": "16573", "cable_id": "1885" }, "geometry": { "type": "Point", "coordinates": [ 131.295402999648843, -0.882070000430099, 0.0 ] } },
{ "type": "Feature", "properties": { "OBJECTID": 281, "Name": "Labuha, Indonesia", "city_id": "16636", "cable_id": "1884" }, "geometry": { "type": "Point", "coordinates": [ 127.480462999967614, -0.626796999681683, 0.0 ] } },
{ "type": "Feature", "properties": { "OBJECTID": 282, "Name": "Manado, Indonesia", "city_id": "15115", "cable_id": "1884" }, "geometry": { "type": "Point", "coordinates": [ 124.839546999694349, 1.490878000019748, 0.0 ] } },
{ "type": "Feature", "properties": { "OBJECTID": 283, "Name": "Ternate, Indonesia", "city_id": "16572", "cable_id": "1884" }, "geometry": { "type": "Point", "coordinates": [ 127.375384999817925, 0.789853000015967, 0.0 ] } },
{ "type": "Feature", "properties": { "OBJECTID": 284, "Name": "Sofifi, Indonesia", "city_id": "16622", "cable_id": "1884" }, "geometry": { "type": "Point", "coordinates": [ 127.561420000233014, 0.734969999765754, 0.0 ] } },
{ "type": "Feature", "properties": { "OBJECTID": 285, "Name": "Sorong, Indonesia", "city_id": "16573", "cable_id": "1884" }, "geometry": { "type": "Point", "coordinates": [ 131.295402999648843, -0.882070000430099, 0.0 ] } },
{ "type": "Feature", "properties": { "OBJECTID": 286, "Name": "Sanana, Indonesia", "city_id": "16623", "cable_id": "1884" }, "geometry": { "type": "Point", "coordinates": [ 125.937006999973136, -2.201478999855918, 0.0 ] } },
{ "type": "Feature", "properties": { "OBJECTID": 287, "Name": "Namlea, Indonesia", "city_id": "16624", "cable_id": "1884" }, "geometry": { "type": "Point", "coordinates": [ 127.085834000238918, -3.233412000063714, 0.0 ] } },
{ "type": "Feature", "properties": { "OBJECTID": 288, "Name": "Ambon, Indonesia", "city_id": "16571", "cable_id": "1884" }, "geometry": { "type": "Point", "coordinates": [ 128.190717000189466, -3.655383999871646, 0.0 ] } },
{ "type": "Feature", "properties": { "OBJECTID": 289, "Name": "Kendari, Indonesia", "city_id": "16570", "cable_id": "1884" }, "geometry": { "type": "Point", "coordinates": [ 122.512984999758061, -3.998474999821322, 0.0 ] } },
{ "type": "Feature", "properties": { "OBJECTID": 290, "Name": "Masohi, Indonesia", "city_id": "16625", "cable_id": "1884" }, "geometry": { "type": "Point", "coordinates": [ 128.955266999672489, -3.297839999816112, 0.0 ] } },
{ "type": "Feature", "properties": { "OBJECTID": 291, "Name": "Bandaneria, Indonesia", "city_id": "16626", "cable_id": "1884" }, "geometry": { "type": "Point", "coordinates": [ 129.872063999953724, -4.520178999661092, 0.0 ] } },
{ "type": "Feature", "properties": { "OBJECTID": 292, "Name": "Fakfak, Indonesia", "city_id": "16574", "cable_id": "1884" }, "geometry": { "type": "Point", "coordinates": [ 133.019424999664068, -3.09776700044667, 0.0 ] } },
{ "type": "Feature", "properties": { "OBJECTID": 293, "Name": "Waisai, Indonesia", "city_id": "16631", "cable_id": "1885" }, "geometry": { "type": "Point", "coordinates": [ 130.857609999601891, -0.383363999948586, 0.0 ] } },
{ "type": "Feature", "properties": { "OBJECTID": 294, "Name": "Fakfak, Indonesia", "city_id": "16574", "cable_id": "1885" }, "geometry": { "type": "Point", "coordinates": [ 133.019424999664068, -3.09776700044667, 0.0 ] } },
{ "type": "Feature", "properties": { "OBJECTID": 295, "Name": "Tual, Indonesia", "city_id": "16632", "cable_id": "1885" }, "geometry": { "type": "Point", "coordinates": [ 132.752042999884623, -5.626549999882521, 0.0 ] } },
{ "type": "Feature", "properties": { "OBJECTID": 296, "Name": "Kaimana, Indonesia", "city_id": "16633", "cable_id": "1885" }, "geometry": { "type": "Point", "coordinates": [ 133.791494999694521, -3.679359000217616, 0.0 ] } },
{ "type": "Feature", "properties": { "OBJECTID": 297, "Name": "Timika, Indonesia", "city_id": "16575", "cable_id": "1885" }, "geometry": { "type": "Point", "coordinates": [ 136.889614000286002, -4.55025699996046, 0.0 ] } },
{ "type": "Feature", "properties": { "OBJECTID": 298, "Name": "Merauke, Indonesia", "city_id": "16576", "cable_id": "1885" }, "geometry": { "type": "Point", "coordinates": [ 140.405041999688621, -8.499082999980436, 0.0 ] } },
{ "type": "Feature", "properties": { "OBJECTID": 299, "Name": "Tutuyan, Indonesia", "city_id": "16621", "cable_id": "1883" }, "geometry": { "type": "Point", "coordinates": [ 124.574996000065539, 0.761434999825488, 0.0 ] } },
{ "type": "Feature", "properties": { "OBJECTID": 300, "Name": "Luwuk, Indonesia", "city_id": "16620", "cable_id": "1883" }, "geometry": { "type": "Point", "coordinates": [ 122.792770000435183, -0.938783999681793, 0.0 ] } },
{ "type": "Feature", "properties": { "OBJECTID": 301, "Name": "Tanjung Selor, Indonesia", "city_id": "16619", "cable_id": "1882" }, "geometry": { "type": "Point", "coordinates": [ 117.819432999833154, 2.572030000084512, 0.0 ] } },
{ "type": "Feature", "properties": { "OBJECTID": 302, "Name": "Tarakan, Indonesia", "city_id": "16618", "cable_id": "1882" }, "geometry": { "type": "Point", "coordinates": [ 117.578515000067213, 3.32735200029471, 0.0 ] } },
{ "type": "Feature", "properties": { "OBJECTID": 303, "Name": "Muntok, Indonesia", "city_id": "16617", "cable_id": "1881" }, "geometry": { "type": "Point", "coordinates": [ 105.164262999837661, -2.06515100021847, 0.0 ] } },
{ "type": "Feature", "properties": { "OBJECTID": 304, "Name": "Surabaya, Indonesia", "city_id": "7802", "cable_id": "1880" }, "geometry": { "type": "Point", "coordinates": [ 112.746681000327968, -7.258580999813209, 0.0 ] } },
{ "type": "Feature", "properties": { "OBJECTID": 305, "Name": "Makassar, Indonesia", "city_id": "9720", "cable_id": "1880" }, "geometry": { "type": "Point", "coordinates": [ 119.412400999706378, -5.152185000437361, 0.0 ] } },
{ "type": "Feature", "properties": { "OBJECTID": 306, "Name": "Perth, Australia", "city_id": "3239", "cable_id": "1744" }, "geometry": { "type": "Point", "coordinates": [ 115.857227000225919, -31.953442000347984, 0.0 ] } },
{ "type": "Feature", "properties": { "OBJECTID": 307, "Name": "Øygarden, Norway", "city_id": "16556", "cable_id": "1203" }, "geometry": { "type": "Point", "coordinates": [ 4.83024100012211, 60.587345999618336, 0.0 ] } },
{ "type": "Feature", "properties": { "OBJECTID": 308, "Name": "Farsund, Norway", "city_id": "15386", "cable_id": "1203" }, "geometry": { "type": "Point", "coordinates": [ 6.752798999674159, 58.082770000435211, 0.0 ] } },
{ "type": "Feature", "properties": { "OBJECTID": 309, "Name": "Tjele, Denmark", "city_id": "16362", "cable_id": "1875" }, "geometry": { "type": "Point", "coordinates": [ 9.611683999916705, 56.510798000227588, 0.0 ] } },
{ "type": "Feature", "properties": { "OBJECTID": 310, "Name": "Tachognya Beach, Tinian, Northern Mariana Islands", "city_id": "16552", "cable_id": "1874" }, "geometry": { "type": "Point", "coordinates": [ 145.629257999856918, 14.958767000396847, 0.0 ] } },
{ "type": "Feature", "properties": { "OBJECTID": 311, "Name": "Sasanlagu, Rota, Northern Mariana Islands", "city_id": "16551", "cable_id": "1874" }, "geometry": { "type": "Point", "coordinates": [ 145.13433700035236, 14.14493700004266, 0.0 ] } },
{ "type": "Feature", "properties": { "OBJECTID": 312, "Name": "Sugar Dock, Saipan", "city_id": "16550", "cable_id": "1874" }, "geometry": { "type": "Point", "coordinates": [ 145.699571000301461, 15.151809000185256, 0.0 ] } },
{ "type": "Feature", "properties": { "OBJECTID": 313, "Name": "Tungku, Brunei", "city_id": "5970", "cable_id": "1891" }, "geometry": { "type": "Point", "coordinates": [ 114.885839999716339, 4.926373999660474, 0.0 ] } },
{ "type": "Feature", "properties": { "OBJECTID": 314, "Name": "Virginia Beach, Virginia, United States", "city_id": "4862", "cable_id": "1890" }, "geometry": { "type": "Point", "coordinates": [ -76.059197999587951, 36.755009000265218, 0.0 ] } },
{ "type": "Feature", "properties": { "OBJECTID": 315, "Name": "Virginia Beach, Virginia, United States", "city_id": "4862", "cable_id": "1873" }, "geometry": { "type": "Point", "coordinates": [ -76.059197999587951, 36.755009000265218, 0.0 ] } },
{ "type": "Feature", "properties": { "OBJECTID": 316, "Name": "Carcavelos, Portugal", "city_id": "5936", "cable_id": "1046" }, "geometry": { "type": "Point", "coordinates": [ -9.331557000355199, 38.690164999814947, 0.0 ] } },
{ "type": "Feature", "properties": { "OBJECTID": 317, "Name": "Carcavelos, Portugal", "city_id": "5936", "cable_id": "1443" }, "geometry": { "type": "Point", "coordinates": [ -9.331557000355199, 38.690164999814947, 0.0 ] } },
{ "type": "Feature", "properties": { "OBJECTID": 318, "Name": "Carcavelos, Portugal", "city_id": "5936", "cable_id": "1629" }, "geometry": { "type": "Point", "coordinates": [ -9.331557000355199, 38.690164999814947, 0.0 ] } },
{ "type": "Feature", "properties": { "OBJECTID": 319, "Name": "Carcavelos, Portugal", "city_id": "5936", "cable_id": "1045" }, "geometry": { "type": "Point", "coordinates": [ -9.331557000355199, 38.690164999814947, 0.0 ] } },
{ "type": "Feature", "properties": { "OBJECTID": 320, "Name": "Utqiaġvik, Alaska, United States", "city_id": "16441", "cable_id": "1862" }, "geometry": { "type": "Point", "coordinates": [ -156.788639999936009, 71.290552000174742, 0.0 ] } },
{ "type": "Feature", "properties": { "OBJECTID": 321, "Name": "Point Hope, Alaska, United States", "city_id": "16440", "cable_id": "1862" }, "geometry": { "type": "Point", "coordinates": [ -166.80806799993826, 68.347767999793433, 0.0 ] } },
{ "type": "Feature", "properties": { "OBJECTID": 322, "Name": "Wainwright, Alaska, United States", "city_id": "16439", "cable_id": "1862" }, "geometry": { "type": "Point", "coordinates": [ -160.038344999621984, 70.636950999988741, 0.0 ] } },
{ "type": "Feature", "properties": { "OBJECTID": 323, "Name": "Kotzebue, Alaska, United States", "city_id": "16438", "cable_id": "1862" }, "geometry": { "type": "Point", "coordinates": [ -162.596668999774494, 66.898342000383082, 0.0 ] } },
{ "type": "Feature", "properties": { "OBJECTID": 324, "Name": "Nome, Alaska, United States", "city_id": "16437", "cable_id": "1862" }, "geometry": { "type": "Point", "coordinates": [ -165.406408999975326, 64.501113999911226, 0.0 ] } },
{ "type": "Feature", "properties": { "OBJECTID": 325, "Name": "Prudhoe Bay, Alaska, United States", "city_id": "13390", "cable_id": "1862" }, "geometry": { "type": "Point", "coordinates": [ -148.338447999875257, 70.255640000185906, 0.0 ] } },
{ "type": "Feature", "properties": { "OBJECTID": 326, "Name": "Kauditan, Indonesia", "city_id": "16518", "cable_id": "1823" }, "geometry": { "type": "Point", "coordinates": [ 125.065621000209021, 1.37862199980554, 0.0 ] } },
{ "type": "Feature", "properties": { "OBJECTID": 327, "Name": "Candelaria, Canary Islands, Spain", "city_id": "7775", "cable_id": "1701" }, "geometry": { "type": "Point", "coordinates": [ -16.371739000254561, 28.355538000078724, 0.0 ] } },
{ "type": "Feature", "properties": { "OBJECTID": 328, "Name": "Cabo Espiritu Santo, Argentina", "city_id": "16514", "cable_id": "1871" }, "geometry": { "type": "Point", "coordinates": [ -68.605784000031548, -52.658901000280878, 0.0 ] } },
{ "type": "Feature", "properties": { "OBJECTID": 329, "Name": "Punta Dungeness, Argentina", "city_id": "16513", "cable_id": "1871" }, "geometry": { "type": "Point", "coordinates": [ -68.41974899961663, -52.390224000137437, 0.0 ] } },
{ "type": "Feature", "properties": { "OBJECTID": 330, "Name": "Sengigi, Indonesia", "city_id": "16516", "cable_id": "1867" }, "geometry": { "type": "Point", "coordinates": [ 116.047266000025942, -8.485460000378685, 0.0 ] } },
{ "type": "Feature", "properties": { "OBJECTID": 331, "Name": "Seraya, Indonesia", "city_id": "16515", "cable_id": "1867" }, "geometry": { "type": "Point", "coordinates": [ 115.746679999682385, -8.386265999975874, 0.0 ] } },
{ "type": "Feature", "properties": { "OBJECTID": 332, "Name": "Tarahales, Spain", "city_id": "16517", "cable_id": "1866" }, "geometry": { "type": "Point", "coordinates": [ -15.450742999689624, 28.096370999621989, 0.0 ] } },
{ "type": "Feature", "properties": { "OBJECTID": 333, "Name": "Mangawhai, New Zealand", "city_id": "16442", "cable_id": "1733" }, "geometry": { "type": "Point", "coordinates": [ 174.574459000382603, -36.126145000291494, 0.0 ] } },
{ "type": "Feature", "properties": { "OBJECTID": 334, "Name": "Kapolei, HI, United States", "city_id": "16358", "cable_id": "1733" }, "geometry": { "type": "Point", "coordinates": [ -158.056900999581416, 21.335424000217518, 0.0 ] } },
{ "type": "Feature", "properties": { "OBJECTID": 335, "Name": "Taba, Egypt", "city_id": "10498", "cable_id": "1806" }, "geometry": { "type": "Point", "coordinates": [ 34.894863000127451, 29.492573999790316, 0.0 ] } },
{ "type": "Feature", "properties": { "OBJECTID": 336, "Name": "Praia Grande, Brazil", "city_id": "16413", "cable_id": "1964" }, "geometry": { "type": "Point", "coordinates": [ -46.412495999590632, -24.008866000165664, 0.0 ] } },
{ "type": "Feature", "properties": { "OBJECTID": 337, "Name": "Praia Grande, Brazil", "city_id": "16413", "cable_id": "1906" }, "geometry": { "type": "Point", "coordinates": [ -46.412495999590632, -24.008866000165664, 0.0 ] } },
{ "type": "Feature", "properties": { "OBJECTID": 338, "Name": "Praia Grande, Brazil", "city_id": "16413", "cable_id": "1728" }, "geometry": { "type": "Point", "coordinates": [ -46.412495999590632, -24.008866000165664, 0.0 ] } },
{ "type": "Feature", "properties": { "OBJECTID": 339, "Name": "Sines, Portugal", "city_id": "9754", "cable_id": "1725" }, "geometry": { "type": "Point", "coordinates": [ -8.869593999963035, 37.957217999910817, 0.0 ] } },
{ "type": "Feature", "properties": { "OBJECTID": 340, "Name": "Cape D'Aguilar, Hong Kong, China", "city_id": "6007", "cable_id": "1739" }, "geometry": { "type": "Point", "coordinates": [ 114.260255000068256, 22.208030999630974, 0.0 ] } },
{ "type": "Feature", "properties": { "OBJECTID": 341, "Name": "Bosaso, Somalia", "city_id": "16373", "cable_id": "1863" }, "geometry": { "type": "Point", "coordinates": [ 49.187922000400143, 11.275566000070997, 0.0 ] } },
{ "type": "Feature", "properties": { "OBJECTID": 342, "Name": "Berbera, Somalia", "city_id": "10093", "cable_id": "1863" }, "geometry": { "type": "Point", "coordinates": [ 45.010873999735331, 10.435112000418615, 0.0 ] } },
{ "type": "Feature", "properties": { "OBJECTID": 343, "Name": "Mogadishu, Somalia", "city_id": "4255", "cable_id": "1863" }, "geometry": { "type": "Point", "coordinates": [ 45.344173999630428, 2.041195000049313, 0.0 ] } },
{ "type": "Feature", "properties": { "OBJECTID": 344, "Name": "Djibouti City, Djibouti", "city_id": "4177", "cable_id": "1863" }, "geometry": { "type": "Point", "coordinates": [ 43.147983999861808, 11.594681999674645, 0.0 ] } },
{ "type": "Feature", "properties": { "OBJECTID": 345, "Name": "Mombasa, Kenya", "city_id": "5896", "cable_id": "1863" }, "geometry": { "type": "Point", "coordinates": [ 39.672789999658782, -4.053210999587928, 0.0 ] } },
{ "type": "Feature", "properties": { "OBJECTID": 346, "Name": "Bosaso, Somalia", "city_id": "16373", "cable_id": "1850" }, "geometry": { "type": "Point", "coordinates": [ 49.187922000400143, 11.275566000070997, 0.0 ] } },
{ "type": "Feature", "properties": { "OBJECTID": 347, "Name": "Berbera, Somalia", "city_id": "10093", "cable_id": "1850" }, "geometry": { "type": "Point", "coordinates": [ 45.010873999735331, 10.435112000418615, 0.0 ] } },
{ "type": "Feature", "properties": { "OBJECTID": 348, "Name": "Salalah, Oman", "city_id": "5924", "cable_id": "1850" }, "geometry": { "type": "Point", "coordinates": [ 54.148076000107366, 17.095827000116056, 0.0 ] } },
{ "type": "Feature", "properties": { "OBJECTID": 349, "Name": "Chipiona, Spain", "city_id": "7777", "cable_id": "1219" }, "geometry": { "type": "Point", "coordinates": [ -6.428872000142628, 36.731302999733707, 0.0 ] } },
{ "type": "Feature", "properties": { "OBJECTID": 350, "Name": "Chipiona, Spain", "city_id": "7777", "cable_id": "1866" }, "geometry": { "type": "Point", "coordinates": [ -6.428872000142628, 36.731302999733707, 0.0 ] } },
{ "type": "Feature", "properties": { "OBJECTID": 351, "Name": "La Union, Philippines", "city_id": "10340", "cable_id": "1507" }, "geometry": { "type": "Point", "coordinates": [ 120.389645999663216, 16.582593999713403, 0.0 ] } },
{ "type": "Feature", "properties": { "OBJECTID": 352, "Name": "Lingang, China", "city_id": "16316", "cable_id": "1786" }, "geometry": { "type": "Point", "coordinates": [ 121.896090999799895, 30.93566400019359, 0.0 ] } },
{ "type": "Feature", "properties": { "OBJECTID": 353, "Name": "Jambi, Indonesia", "city_id": "9719", "cable_id": "1844" }, "geometry": { "type": "Point", "coordinates": [ 103.609966999977175, -1.590003999784663, 0.0 ] } },
{ "type": "Feature", "properties": { "OBJECTID": 354, "Name": "San Andres, Colombia", "city_id": "15182", "cable_id": "1843" }, "geometry": { "type": "Point", "coordinates": [ -81.700565000274494, 12.584696000320164, 0.0 ] } },
{ "type": "Feature", "properties": { "OBJECTID": 355, "Name": "Skagway, Alaska, United States", "city_id": "16208", "cable_id": "1840" }, "geometry": { "type": "Point", "coordinates": [ -135.313893999708284, 59.458342999829668, 0.0 ] } },
{ "type": "Feature", "properties": { "OBJECTID": 356, "Name": "Haines, Alaska, United States", "city_id": "16207", "cable_id": "1840" }, "geometry": { "type": "Point", "coordinates": [ -135.444997000311275, 59.235832999993029, 0.0 ] } },
{ "type": "Feature", "properties": { "OBJECTID": 357, "Name": "Kaunakakai, HI, United States", "city_id": "16121", "cable_id": "1456" }, "geometry": { "type": "Point", "coordinates": [ -157.023893000161792, 21.093358999718195, 0.0 ] } },
{ "type": "Feature", "properties": { "OBJECTID": 358, "Name": "Manele Bay, HI, United States", "city_id": "16122", "cable_id": "1456" }, "geometry": { "type": "Point", "coordinates": [ -156.896890999819732, 20.743432000186704, 0.0 ] } },
{ "type": "Feature", "properties": { "OBJECTID": 359, "Name": "Ko Olina, HI, United States", "city_id": "16118", "cable_id": "1455" }, "geometry": { "type": "Point", "coordinates": [ -158.119498000332413, 21.339697000316324, 0.0 ] } },
{ "type": "Feature", "properties": { "OBJECTID": 360, "Name": "Koko Head, HI, United States", "city_id": "16116", "cable_id": "1456" }, "geometry": { "type": "Point", "coordinates": [ -157.696011999953782, 21.277563000232302, 0.0 ] } },
{ "type": "Feature", "properties": { "OBJECTID": 361, "Name": "Koko Head, HI, United States", "city_id": "16116", "cable_id": "1455" }, "geometry": { "type": "Point", "coordinates": [ -157.696011999953782, 21.277563000232302, 0.0 ] } },
{ "type": "Feature", "properties": { "OBJECTID": 362, "Name": "Kihei, Maui, HI, United States", "city_id": "7795", "cable_id": "1456" }, "geometry": { "type": "Point", "coordinates": [ -156.463103000103303, 20.782152999761209, 0.0 ] } },
{ "type": "Feature", "properties": { "OBJECTID": 363, "Name": "Kihei, Maui, HI, United States", "city_id": "7795", "cable_id": "1455" }, "geometry": { "type": "Point", "coordinates": [ -156.463103000103303, 20.782152999761209, 0.0 ] } },
{ "type": "Feature", "properties": { "OBJECTID": 364, "Name": "Lihue, HI, United States", "city_id": "4822", "cable_id": "1456" }, "geometry": { "type": "Point", "coordinates": [ -159.368570000005462, 21.974938000088713, 0.0 ] } },
{ "type": "Feature", "properties": { "OBJECTID": 365, "Name": "Lihue, HI, United States", "city_id": "4822", "cable_id": "1455" }, "geometry": { "type": "Point", "coordinates": [ -159.368570000005462, 21.974938000088713, 0.0 ] } },
{ "type": "Feature", "properties": { "OBJECTID": 366, "Name": "Gran Canaria, Canary Islands, Spain", "city_id": "5721", "cable_id": "1449" }, "geometry": { "type": "Point", "coordinates": [ -15.596592999567243, 27.957759999924136, 0.0 ] } },
{ "type": "Feature", "properties": { "OBJECTID": 367, "Name": "Lanzaarote, Canary Islands, Spain", "city_id": "7781", "cable_id": "1449" }, "geometry": { "type": "Point", "coordinates": [ -13.650402000152154, 29.03850900029019, 0.0 ] } },
{ "type": "Feature", "properties": { "OBJECTID": 368, "Name": "Skaill, United Kingdom", "city_id": "16021", "cable_id": "1836" }, "geometry": { "type": "Point", "coordinates": [ -3.354948000150011, 59.051458999733136, 0.0 ] } },
{ "type": "Feature", "properties": { "OBJECTID": 369, "Name": "Dunnet Head, United Kingdom", "city_id": "16020", "cable_id": "1836" }, "geometry": { "type": "Point", "coordinates": [ -3.376579000320597, 58.670331000275525, 0.0 ] } },
{ "type": "Feature", "properties": { "OBJECTID": 370, "Name": "Whitehead, United Kingdom", "city_id": "16018", "cable_id": "1834" }, "geometry": { "type": "Point", "coordinates": [ -5.718715999943429, 54.753706999578405, 0.0 ] } },
{ "type": "Feature", "properties": { "OBJECTID": 371, "Name": "Troon, United Kingdom", "city_id": "11461", "cable_id": "1834" }, "geometry": { "type": "Point", "coordinates": [ -4.659927999677397, 55.541327999987345, 0.0 ] } },
{ "type": "Feature", "properties": { "OBJECTID": 372, "Name": "Aberdeen, United Kingdom", "city_id": "3537", "cable_id": "1203" }, "geometry": { "type": "Point", "coordinates": [ -2.106804000104497, 57.153790999555071, 0.0 ] } },
{ "type": "Feature", "properties": { "OBJECTID": 373, "Name": "Rota, Spain", "city_id": "10400", "cable_id": "1666" }, "geometry": { "type": "Point", "coordinates": [ -6.36300299958871, 36.626274000045115, 0.0 ] } },
{ "type": "Feature", "properties": { "OBJECTID": 374, "Name": "Tinocas, Canary Islands, Spain", "city_id": "16016", "cable_id": "1666" }, "geometry": { "type": "Point", "coordinates": [ -15.487706000031809, 28.134358999568203, 0.0 ] } },
{ "type": "Feature", "properties": { "OBJECTID": 375, "Name": "Güimar, Canary Islands", "city_id": "16017", "cable_id": "1666" }, "geometry": { "type": "Point", "coordinates": [ -16.412559000397462, 28.310579999767295, 0.0 ] } },
{ "type": "Feature", "properties": { "OBJECTID": 376, "Name": "Jambi, Indonesia", "city_id": "9719", "cable_id": "1832" }, "geometry": { "type": "Point", "coordinates": [ 103.609966999977175, -1.590003999784663, 0.0 ] } },
{ "type": "Feature", "properties": { "OBJECTID": 377, "Name": "Bratu Prahu, Indonesia", "city_id": "16015", "cable_id": "1833" }, "geometry": { "type": "Point", "coordinates": [ 106.547465000309614, -3.079921000353874, 0.0 ] } },
{ "type": "Feature", "properties": { "OBJECTID": 378, "Name": "Jakarta, Indonesia", "city_id": "3012", "cable_id": "1844" }, "geometry": { "type": "Point", "coordinates": [ 106.827836000131455, -6.171593999563334, 0.0 ] } },
{ "type": "Feature", "properties": { "OBJECTID": 379, "Name": "Tanjung Pakis, Indonesia", "city_id": "9095", "cable_id": "1844" }, "geometry": { "type": "Point", "coordinates": [ 107.12090299997358, -5.981261999741393, 0.0 ] } },
{ "type": "Feature", "properties": { "OBJECTID": 380, "Name": "Tanjung Pandan, Indonesia", "city_id": "10687", "cable_id": "1844" }, "geometry": { "type": "Point", "coordinates": [ 107.662895000104228, -2.767445000286468, 0.0 ] } },
{ "type": "Feature", "properties": { "OBJECTID": 381, "Name": "Pontianak, Indonesia", "city_id": "8360", "cable_id": "1844" }, "geometry": { "type": "Point", "coordinates": [ 109.335452000109811, -0.027407000232814, 0.0 ] } },
{ "type": "Feature", "properties": { "OBJECTID": 382, "Name": "Batam, Indonesia", "city_id": "5862", "cable_id": "1887" }, "geometry": { "type": "Point", "coordinates": [ 103.962506000351766, 1.134726000304813, 0.0 ] } },
{ "type": "Feature", "properties": { "OBJECTID": 383, "Name": "Batam, Indonesia", "city_id": "5862", "cable_id": "1844" }, "geometry": { "type": "Point", "coordinates": [ 103.962506000351766, 1.134726000304813, 0.0 ] } },
{ "type": "Feature", "properties": { "OBJECTID": 384, "Name": "Dumai, Indonesia", "city_id": "7311", "cable_id": "1559" }, "geometry": { "type": "Point", "coordinates": [ 101.447564999824934, 1.665608999855549, 0.0 ] } },
{ "type": "Feature", "properties": { "OBJECTID": 385, "Name": "Dumai, Indonesia", "city_id": "7311", "cable_id": "1844" }, "geometry": { "type": "Point", "coordinates": [ 101.447564999824934, 1.665608999855549, 0.0 ] } },
{ "type": "Feature", "properties": { "OBJECTID": 386, "Name": "Pekanbaru, Indonesia", "city_id": "9724", "cable_id": "1844" }, "geometry": { "type": "Point", "coordinates": [ 101.450007000023135, 0.533335000310124, 0.0 ] } },
{ "type": "Feature", "properties": { "OBJECTID": 387, "Name": "Palembang, Indonesia", "city_id": "9723", "cable_id": "1881" }, "geometry": { "type": "Point", "coordinates": [ 104.757330000179451, -2.990979999727089, 0.0 ] } },
{ "type": "Feature", "properties": { "OBJECTID": 388, "Name": "Palembang, Indonesia", "city_id": "9723", "cable_id": "1844" }, "geometry": { "type": "Point", "coordinates": [ 104.757330000179451, -2.990979999727089, 0.0 ] } },
{ "type": "Feature", "properties": { "OBJECTID": 389, "Name": "Bandar Lampung, Indonesia", "city_id": "9727", "cable_id": "1844" }, "geometry": { "type": "Point", "coordinates": [ 105.254106999838314, -5.409290000233261, 0.0 ] } },
{ "type": "Feature", "properties": { "OBJECTID": 390, "Name": "Medan, Indonesia", "city_id": "5861", "cable_id": "1559" }, "geometry": { "type": "Point", "coordinates": [ 98.676082000284168, 3.752132000091773, 0.0 ] } },
{ "type": "Feature", "properties": { "OBJECTID": 391, "Name": "Medan, Indonesia", "city_id": "5861", "cable_id": "1844" }, "geometry": { "type": "Point", "coordinates": [ 98.676082000284168, 3.752132000091773, 0.0 ] } },
{ "type": "Feature", "properties": { "OBJECTID": 392, "Name": "Bandar Bukit Tinggi, Malaysia", "city_id": "14269", "cable_id": "1844" }, "geometry": { "type": "Point", "coordinates": [ 101.436726000004953, 3.009285999649277, 0.0 ] } },
{ "type": "Feature", "properties": { "OBJECTID": 393, "Name": "Padang, Indonesia", "city_id": "9722", "cable_id": "1844" }, "geometry": { "type": "Point", "coordinates": [ 100.361628000332033, -0.943862000031203, 0.0 ] } },
{ "type": "Feature", "properties": { "OBJECTID": 394, "Name": "Baturaja, Indonesia", "city_id": "16284", "cable_id": "1844" }, "geometry": { "type": "Point", "coordinates": [ 103.838970999811835, -5.040320000267704, 0.0 ] } },
{ "type": "Feature", "properties": { "OBJECTID": 395, "Name": "Teping Tinggi, Indonesia", "city_id": "16285", "cable_id": "1844" }, "geometry": { "type": "Point", "coordinates": [ 99.208210999737972, 3.3805989997441, 0.0 ] } },
{ "type": "Feature", "properties": { "OBJECTID": 396, "Name": "Rantu Prapat, Indonesia", "city_id": "16286", "cable_id": "1844" }, "geometry": { "type": "Point", "coordinates": [ 99.827839999916122, 2.105135999826635, 0.0 ] } },
{ "type": "Feature", "properties": { "OBJECTID": 397, "Name": "Sibolga, Indonesia", "city_id": "16287", "cable_id": "1844" }, "geometry": { "type": "Point", "coordinates": [ 98.786628999928453, 1.7478120000239, 0.0 ] } },
{ "type": "Feature", "properties": { "OBJECTID": 398, "Name": "Pesaren, Indonesia", "city_id": "16014", "cable_id": "1833" }, "geometry": { "type": "Point", "coordinates": [ 105.582720000327768, -1.55387099994664, 0.0 ] } },
{ "type": "Feature", "properties": { "OBJECTID": 399, "Name": "Linao, Chile", "city_id": "16013", "cable_id": "1830" }, "geometry": { "type": "Point", "coordinates": [ -73.504463000367139, -41.991131999841848, 0.0 ] } },
{ "type": "Feature", "properties": { "OBJECTID": 400, "Name": "Meimen, Chile", "city_id": "16012", "cable_id": "1830" }, "geometry": { "type": "Point", "coordinates": [ -73.15529299977203, -41.806928000226982, 0.0 ] } },
{ "type": "Feature", "properties": { "OBJECTID": 401, "Name": "Kota Kinabalu, Malaysia", "city_id": "6009", "cable_id": "1828" }, "geometry": { "type": "Point", "coordinates": [ 116.074316000083385, 5.981330000379312, 0.0 ] } },
{ "type": "Feature", "properties": { "OBJECTID": 402, "Name": "Miri, Malaysia", "city_id": "7809", "cable_id": "1828" }, "geometry": { "type": "Point", "coordinates": [ 114.00742300037119, 4.425299999695251, 0.0 ] } },
{ "type": "Feature", "properties": { "OBJECTID": 403, "Name": "Bintulu, Malaysia", "city_id": "7811", "cable_id": "1828" }, "geometry": { "type": "Point", "coordinates": [ 113.068361000359957, 3.197005000380492, 0.0 ] } },
{ "type": "Feature", "properties": { "OBJECTID": 404, "Name": "Kuching, Malaysia", "city_id": "7808", "cable_id": "1886" }, "geometry": { "type": "Point", "coordinates": [ 110.353714000300997, 1.52017500027604, 0.0 ] } },
{ "type": "Feature", "properties": { "OBJECTID": 405, "Name": "Kuching, Malaysia", "city_id": "7808", "cable_id": "1828" }, "geometry": { "type": "Point", "coordinates": [ 110.353714000300997, 1.52017500027604, 0.0 ] } },
{ "type": "Feature", "properties": { "OBJECTID": 406, "Name": "Canterbury, New Zealand", "city_id": "7855", "cable_id": "1487" }, "geometry": { "type": "Point", "coordinates": [ 171.707370999572049, -43.494183999991549, 0.0 ] } },
{ "type": "Feature", "properties": { "OBJECTID": 407, "Name": "Marlborough, New Zealand", "city_id": "7854", "cable_id": "1487" }, "geometry": { "type": "Point", "coordinates": [ 173.58071000016642, -41.527240999572435, 0.0 ] } },
{ "type": "Feature", "properties": { "OBJECTID": 408, "Name": "Manawatu-Wanganui, New Zealand", "city_id": "7853", "cable_id": "1487" }, "geometry": { "type": "Point", "coordinates": [ 175.618208999645702, -39.625435000125073, 0.0 ] } },
{ "type": "Feature", "properties": { "OBJECTID": 409, "Name": "Taranaki, New Zealand", "city_id": "7852", "cable_id": "1487" }, "geometry": { "type": "Point", "coordinates": [ 174.371529999709878, -39.287862000131156, 0.0 ] } },
{ "type": "Feature", "properties": { "OBJECTID": 410, "Name": "Waikato, New Zealand", "city_id": "7851", "cable_id": "1487" }, "geometry": { "type": "Point", "coordinates": [ 175.534908000104224, -37.91589000042309, 0.0 ] } },
{ "type": "Feature", "properties": { "OBJECTID": 411, "Name": "Wellington, New Zealand", "city_id": "4052", "cable_id": "1487" }, "geometry": { "type": "Point", "coordinates": [ 174.767135000379994, -41.280537000082468, 0.0 ] } },
{ "type": "Feature", "properties": { "OBJECTID": 412, "Name": "Largs, United Kingdom", "city_id": "15837", "cable_id": "1827" }, "geometry": { "type": "Point", "coordinates": [ -4.867301000240903, 55.793341999733549, 0.0 ] } },
{ "type": "Feature", "properties": { "OBJECTID": 413, "Name": "Kilchatten Bay, United Kingdom", "city_id": "15838", "cable_id": "1827" }, "geometry": { "type": "Point", "coordinates": [ -5.028092000245568, 55.751838999570232, 0.0 ] } },
{ "type": "Feature", "properties": { "OBJECTID": 414, "Name": "Otter Ferry, United Kingdom", "city_id": "15839", "cable_id": "1827" }, "geometry": { "type": "Point", "coordinates": [ -5.321206999603278, 56.008284000406306, 0.0 ] } },
{ "type": "Feature", "properties": { "OBJECTID": 415, "Name": "Achnaba, United Kingdom", "city_id": "15840", "cable_id": "1827" }, "geometry": { "type": "Point", "coordinates": [ -5.365786999570298, 56.019416000248256, 0.0 ] } },
{ "type": "Feature", "properties": { "OBJECTID": 416, "Name": "Blackwaterfoot, United Kingdom", "city_id": "15841", "cable_id": "1827" }, "geometry": { "type": "Point", "coordinates": [ -5.332095999930353, 55.501947999700455, 0.0 ] } },
{ "type": "Feature", "properties": { "OBJECTID": 417, "Name": "Ardnacross, United Kingdom", "city_id": "15842", "cable_id": "1827" }, "geometry": { "type": "Point", "coordinates": [ -5.533414000055996, 55.476546000097848, 0.0 ] } },
{ "type": "Feature", "properties": { "OBJECTID": 418, "Name": "Down Craig, United Kingdom", "city_id": "15843", "cable_id": "1827" }, "geometry": { "type": "Point", "coordinates": [ -4.900455000297969, 55.780158999738141, 0.0 ] } },
{ "type": "Feature", "properties": { "OBJECTID": 419, "Name": "Corrie, United Kingdom", "city_id": "15844", "cable_id": "1827" }, "geometry": { "type": "Point", "coordinates": [ -5.141421999625559, 55.643647999755466, 0.0 ] } },
{ "type": "Feature", "properties": { "OBJECTID": 420, "Name": "Ardneil Bay, United Kingdom", "city_id": "15845", "cable_id": "1827" }, "geometry": { "type": "Point", "coordinates": [ -4.889370999971603, 55.693048999911468, 0.0 ] } },
{ "type": "Feature", "properties": { "OBJECTID": 421, "Name": "Port Askaig, United Kingdom", "city_id": "15846", "cable_id": "1827" }, "geometry": { "type": "Point", "coordinates": [ -6.106314000090974, 55.847736999962734, 0.0 ] } },
{ "type": "Feature", "properties": { "OBJECTID": 422, "Name": "Feolin Ferry, United Kingdom", "city_id": "15847", "cable_id": "1827" }, "geometry": { "type": "Point", "coordinates": [ -6.089907999854251, 55.846748000220138, 0.0 ] } },
{ "type": "Feature", "properties": { "OBJECTID": 423, "Name": "Lavagulin, United Kingdom", "city_id": "15848", "cable_id": "1827" }, "geometry": { "type": "Point", "coordinates": [ -6.125406000086794, 55.636115999553788, 0.0 ] } },
{ "type": "Feature", "properties": { "OBJECTID": 424, "Name": "Glenbarr, United Kingdom", "city_id": "15849", "cable_id": "1827" }, "geometry": { "type": "Point", "coordinates": [ -5.697573999840194, 55.56549800033256, 0.0 ] } },
{ "type": "Feature", "properties": { "OBJECTID": 425, "Name": "Craighouse, United Kingdom", "city_id": "15850", "cable_id": "1827" }, "geometry": { "type": "Point", "coordinates": [ -5.953823999777751, 55.833673999855236, 0.0 ] } },
{ "type": "Feature", "properties": { "OBJECTID": 426, "Name": "Ormsary, United Kingdom", "city_id": "15851", "cable_id": "1827" }, "geometry": { "type": "Point", "coordinates": [ -5.61456600032058, 55.891682000324117, 0.0 ] } },
{ "type": "Feature", "properties": { "OBJECTID": 427, "Name": "Kilchoan Ferry, United Kingdom", "city_id": "15852", "cable_id": "1827" }, "geometry": { "type": "Point", "coordinates": [ -6.093959999654154, 56.68856899995945, 0.0 ] } },
{ "type": "Feature", "properties": { "OBJECTID": 428, "Name": "Tobermory, United Kingdom", "city_id": "15853", "cable_id": "1827" }, "geometry": { "type": "Point", "coordinates": [ -6.070279000275587, 56.621845000446491, 0.0 ] } },
{ "type": "Feature", "properties": { "OBJECTID": 429, "Name": "Duart Bay, United Kingdom", "city_id": "15854", "cable_id": "1827" }, "geometry": { "type": "Point", "coordinates": [ -5.669350999648865, 56.455842000208207, 0.0 ] } },
{ "type": "Feature", "properties": { "OBJECTID": 430, "Name": "Ganavan Bay, United Kingdom", "city_id": "15855", "cable_id": "1827" }, "geometry": { "type": "Point", "coordinates": [ -5.47579699963172, 56.437763000162413, 0.0 ] } },
{ "type": "Feature", "properties": { "OBJECTID": 431, "Name": "Corran, United Kingdom", "city_id": "15856", "cable_id": "1827" }, "geometry": { "type": "Point", "coordinates": [ -5.245377000148351, 56.722529000313145, 0.0 ] } },
{ "type": "Feature", "properties": { "OBJECTID": 432, "Name": "Ardmair, United Kingdom", "city_id": "15857", "cable_id": "1827" }, "geometry": { "type": "Point", "coordinates": [ -5.196206999853144, 57.934075999807632, 0.0 ] } },
{ "type": "Feature", "properties": { "OBJECTID": 433, "Name": "Branahuie Bay, United Kingdom", "city_id": "15858", "cable_id": "1827" }, "geometry": { "type": "Point", "coordinates": [ -6.310757000435159, 58.209063999603949, 0.0 ] } },
{ "type": "Feature", "properties": { "OBJECTID": 434, "Name": "Leverburgh, United Kingdom", "city_id": "15859", "cable_id": "1827" }, "geometry": { "type": "Point", "coordinates": [ -7.008364000198417, 57.769402999748749, 0.0 ] } },
{ "type": "Feature", "properties": { "OBJECTID": 435, "Name": "Lochmaddy, United Kingdom", "city_id": "15860", "cable_id": "1827" }, "geometry": { "type": "Point", "coordinates": [ -7.163345000271446, 57.603693000431718, 0.0 ] } },
{ "type": "Feature", "properties": { "OBJECTID": 436, "Name": "Dunvegan, United Kingdom", "city_id": "15861", "cable_id": "1827" }, "geometry": { "type": "Point", "coordinates": [ -6.581654999578473, 57.436323000106462, 0.0 ] } },
{ "type": "Feature", "properties": { "OBJECTID": 437, "Name": "Sandwick Village, United Kingdom", "city_id": "15862", "cable_id": "1827" }, "geometry": { "type": "Point", "coordinates": [ -7.274136000376071, 57.366693999728355, 0.0 ] } },